osm_uid,osm_type,osm_id,category,name,brand,brand:wikidata,addr:street,addr:district,opening_hours,website,phone,operator,cuisine,wikidata,lat,lon,_raw_tags
node/1000505861,node,1000505861,bakeries,مخبز زهرة لبنان,,,,,,,,,,,24.4754517,54.3772426,"{""name"": ""مخبز زهرة لبنان"", ""name:en"": ""Lebanese Flower Bakery"", ""shop"": ""bakery""}"
node/1000505863,node,1000505863,restaurants,مطعم زهرة لبنان,,,,,,,,,lebanese grill,,24.4756132,54.3774909,"{""amenity"": ""restaurant"", ""cuisine"": ""lebanese grill"", ""name"": ""مطعم زهرة لبنان"", ""name:ar"": ""مطعم زهرة لبنان"", ""name:en"": ""Lebanese Flower Restaurant""}"
node/10008182578,node,10008182578,coffee_shops,Alkalime,,,,,Su-Th 08:00-22:00; Fr-Sa 09:00-22:00,http://www.wearealkalime.com/,+971544491547,,organic,,24.5390372,54.4090196,"{""addr:city"": ""أبو ظبي"", ""addr:city:ar"": ""أبو ظبي"", ""addr:city:en"": ""Abu Dhabi"", ""addr:city:ur"": ""ابوظہبی"", ""addr:postcode"": ""22600"", ""amenity"": ""cafe"", ""cuisine"": ""organic"", ""email"": ""hello@wearealkalime.com"", ""internet_access"": ""wlan"", ""internet_access:fee"": ""no"", ""internet_access:ssid"": ""Alkalime Guest"", ""name"": ""Alkalime"", ""opening_hours"": ""Su-Th 08:00-22:00; Fr-Sa 09:00-22:00"", ""outdoor_seating"": ""yes"", ""phone"": ""+971544491547"", ""website"": ""http://www.wearealkalime.com/""}"
node/10008200718,node,10008200718,coffee_shops,Wake N Bake,,,,,,,,,donut,,24.5389509,54.4093912,"{""addr:city"": ""أبو ظبي"", ""addr:city:ar"": ""أبو ظبي"", ""addr:city:en"": ""Abu Dhabi"", ""addr:city:ur"": ""ابوظہبی"", ""addr:postcode"": ""22600"", ""amenity"": ""cafe"", ""cuisine"": ""donut"", ""name"": ""Wake N Bake""}"
node/10008200719,node,10008200719,restaurants,Mastani,,,,,,,,,indian,,24.5390666,54.4094817,"{""addr:city"": ""أبو ظبي"", ""addr:city:ar"": ""أبو ظبي"", ""addr:city:en"": ""Abu Dhabi"", ""addr:city:ur"": ""ابوظہبی"", ""addr:postcode"": ""22600"", ""amenity"": ""restaurant"", ""cuisine"": ""indian"", ""name"": ""Mastani""}"
node/10008200720,node,10008200720,coffee_shops,Local,,,,,08:00-23:00,https://localco.ae/,,,coffee_shop,,24.5390715,54.4097054,"{""addr:city"": ""أبو ظبي"", ""addr:city:ar"": ""أبو ظبي"", ""addr:city:en"": ""Abu Dhabi"", ""addr:city:ur"": ""ابوظہبی"", ""addr:postcode"": ""22600"", ""amenity"": ""cafe"", ""cuisine"": ""coffee_shop"", ""name"": ""Local"", ""opening_hours"": ""08:00-23:00"", ""website"": ""https://localco.ae/""}"
node/10009134830,node,10009134830,coffee_shops,Society,,,,,,https://www.societyuae.com/,+97128867735,,coffee_shop,,24.5390008,54.4067178,"{""addr:city"": ""أبو ظبي"", ""addr:city:ar"": ""أبو ظبي"", ""addr:city:en"": ""Abu Dhabi"", ""addr:city:ur"": ""ابوظہبی"", ""addr:postcode"": ""22600"", ""amenity"": ""cafe"", ""cuisine"": ""coffee_shop"", ""email"": ""manager.ad@societyuae.com"", ""name"": ""Society"", ""outdoor_seating"": ""yes"", ""phone"": ""+97128867735"", ""website"": ""https://www.societyuae.com/""}"
node/10009134831,node,10009134831,coffee_shops,Cafe Artea,,,,,,,,,,,24.5387006,54.4069092,"{""addr:city"": ""أبو ظبي"", ""addr:city:ar"": ""أبو ظبي"", ""addr:city:en"": ""Abu Dhabi"", ""addr:city:ur"": ""ابوظہبی"", ""addr:postcode"": ""22600"", ""amenity"": ""cafe"", ""name"": ""Cafe Artea""}"
node/10009134832,node,10009134832,restaurants,Antonia,,,,,12:00-23:00,https://www.antoniarestaurant.com/,+97126672554,,italian,,24.5389598,54.4071905,"{""addr:city"": ""أبو ظبي"", ""addr:city:ar"": ""أبو ظبي"", ""addr:city:en"": ""Abu Dhabi"", ""addr:city:ur"": ""ابوظہبی"", ""addr:postcode"": ""22600"", ""amenity"": ""restaurant"", ""cuisine"": ""italian"", ""email"": ""info@mysite.com"", ""name"": ""Antonia"", ""opening_hours"": ""12:00-23:00"", ""phone"": ""+97126672554"", ""website"": ""https://www.antoniarestaurant.com/""}"
node/10009134833,node,10009134833,coffee_shops,Coffee Architecture,,,,,,https://www.thecoffeearchitecture.com/,,,coffee_shop,,24.5389591,54.4073335,"{""addr:city"": ""أبو ظبي"", ""addr:city:ar"": ""أبو ظبي"", ""addr:city:en"": ""Abu Dhabi"", ""addr:city:ur"": ""ابوظہبی"", ""addr:postcode"": ""22600"", ""amenity"": ""cafe"", ""cuisine"": ""coffee_shop"", ""email"": ""contact@thecoffeearchitecture.com"", ""name"": ""Coffee Architecture"", ""website"": ""https://www.thecoffeearchitecture.com/""}"
node/10009134836,node,10009134836,restaurants,Black Tap,,,,,,,,,,,24.5390196,54.4100846,"{""amenity"": ""restaurant"", ""name"": ""Black Tap""}"
node/10009134837,node,10009134837,restaurants,Beirut sur Mer,,,,,,,,,,,24.5390253,54.4104515,"{""amenity"": ""restaurant"", ""name"": ""Beirut sur Mer""}"
node/10009134838,node,10009134838,coffee_shops,ETHR,,,,,,,,,,,24.5390659,54.4109076,"{""addr:city"": ""أبو ظبي"", ""addr:city:ar"": ""أبو ظبي"", ""addr:city:en"": ""Abu Dhabi"", ""addr:city:ur"": ""ابوظہبی"", ""addr:postcode"": ""22600"", ""amenity"": ""cafe"", ""name"": ""ETHR""}"
node/10009134839,node,10009134839,restaurants,Raclette,,,,,,,,,french,,24.5390904,54.4110909,"{""amenity"": ""restaurant"", ""cuisine"": ""french"", ""name"": ""Raclette""}"
node/10009134840,node,10009134840,restaurants,Ting Irie,,,,,,,,,jamaican,,24.5390772,54.4113696,"{""amenity"": ""restaurant"", ""cuisine"": ""jamaican"", ""name"": ""Ting Irie""}"
node/10009134841,node,10009134841,fast_food,Feels,,,,,,,,,juice,,24.5391015,54.4115143,"{""amenity"": ""fast_food"", ""cuisine"": ""juice"", ""name"": ""Feels""}"
node/10009153319,node,10009153319,supermarkets,Carrefour,Carrefour,Q217599,,,,,,Carrefour,,,24.5384935,54.4119555,"{""brand"": ""Carrefour"", ""brand:wikidata"": ""Q217599"", ""name"": ""Carrefour"", ""operator"": ""Carrefour"", ""shop"": ""supermarket""}"
node/10012770918,node,10012770918,fast_food,Coco Loco,,,,,,,,,juice,,24.5245213,54.434054,"{""addr:city"": ""أبو ظبي"", ""addr:city:ar"": ""أبو ظبي"", ""addr:city:en"": ""Abu Dhabi"", ""addr:city:ur"": ""ابوظہبی"", ""addr:postcode"": ""22602"", ""amenity"": ""fast_food"", ""cuisine"": ""juice"", ""name"": ""Coco Loco"", ""takeaway"": ""yes""}"
node/10012770919,node,10012770919,restaurants,Asiatic & Co,,,,,,,,,asian,,24.5245503,54.4340617,"{""amenity"": ""restaurant"", ""cuisine"": ""asian"", ""name"": ""Asiatic & Co""}"
node/10017650321,node,10017650321,restaurants,L’eto,,,,,Fr-Su 09:00-24:00; Mo-Th 09:00-23:00,,,L'ETO,,,24.4879248,54.607788,"{""air_conditioning"": ""yes"", ""amenity"": ""restaurant"", ""contact:email"": ""ae@letocaffe.com"", ""contact:facebook"": ""https://facebook.com/letocaffe.ae"", ""contact:instagram"": ""https://instagram.com/letocaffe.official"", ""contact:phone"": ""+971 2 491 1283"", ""contact:website"": ""https://letocaffe.com"", ""diet:halal"": ""yes"", ""diet:vegan"": ""yes"", ""diet:vegetarian"": ""yes"", ""indoor_seating"": ""yes"", ""name"": ""L’eto"", ""opening_hours"": ""Fr-Su 09:00-24:00; Mo-Th 09:00-23:00"", ""operator"": ""L'ETO"", ""outdoor_seating"": ""no"", ""payment:credit_cards"": ""yes"", ""payment:debit_cards"": ""yes"", ""smoking"": ""no"", ""toilets"": ""no"", ""wheelchair"": ""limited""}"
node/10017650323,node,10017650323,restaurants,L’eto,,,,,"Fr-Sa 09:00-00:00;Mo-Th,Su 09:00-23:00",,,L'ETO,,,24.5006754,54.3883431,"{""amenity"": ""restaurant"", ""contact:email"": ""ae@letocaffe.com"", ""contact:facebook"": ""https://facebook.com/letocaffe.ae"", ""contact:instagram"": ""https://instagram.com/letocaffe.official"", ""contact:phone"": ""+971 2 679 4222"", ""contact:website"": ""https://letocaffe.com"", ""name"": ""L’eto"", ""opening_hours"": ""Fr-Sa 09:00-00:00;Mo-Th,Su 09:00-23:00"", ""operator"": ""L'ETO""}"
node/10017864808,node,10017864808,fast_food,House of Tea,,,,,Mo-Su 05:00-01:00,,,House of Tea Cafeteria,burger,,24.4798377,54.3590239,"{""amenity"": ""fast_food"", ""contact:email"": ""houseoftea1992@gmail.com"", ""contact:phone"": ""+971 2 631 4231;+971 50 958 4710"", ""contact:website"": ""https://houseoftea.ae"", ""cuisine"": ""burger"", ""name"": ""House of Tea"", ""opening_hours"": ""Mo-Su 05:00-01:00"", ""operator"": ""House of Tea Cafeteria"", ""takeaway"": ""only""}"
node/10017864809,node,10017864809,fast_food,House of Tea,,,,,Mo-Su 04:30-01:00,,,House of Tea Cafeteria,burger,,24.4471105,54.4017112,"{""amenity"": ""fast_food"", ""contact:email"": ""houseoftea1992@gmail.com"", ""contact:phone"": ""+971 2 448 8221;+971 56 508 3987"", ""contact:website"": ""https://houseoftea.ae"", ""cuisine"": ""burger"", ""name"": ""House of Tea"", ""opening_hours"": ""Mo-Su 04:30-01:00"", ""operator"": ""House of Tea Cafeteria"", ""takeaway"": ""only""}"
node/10017864811,node,10017864811,fast_food,House of Tea,,,,,Mo-Su 04:00-01:00,,,House of Tea Cafeteria,burger,,24.2867775,54.641836,"{""amenity"": ""fast_food"", ""contact:email"": ""houseoftea1992@gmail.com"", ""contact:phone"": ""+971 2 583 6395;+971 56 508 3980"", ""contact:website"": ""https://houseoftea.ae"", ""cuisine"": ""burger"", ""name"": ""House of Tea"", ""opening_hours"": ""Mo-Su 04:00-01:00"", ""operator"": ""House of Tea Cafeteria"", ""takeaway"": ""only""}"
node/10017864812,node,10017864812,fast_food,House of Tea,,,,,Mo-Su 04:30-24:00,,,House of Tea Cafeteria,burger,,24.4941222,54.3638277,"{""amenity"": ""fast_food"", ""contact:email"": ""houseoftea1992@gmail.com"", ""contact:phone"": ""+971 2 626 2447;+971 56 508 3986"", ""contact:website"": ""https://houseoftea.ae"", ""cuisine"": ""burger"", ""name"": ""House of Tea"", ""opening_hours"": ""Mo-Su 04:30-24:00"", ""operator"": ""House of Tea Cafeteria"", ""takeaway"": ""only""}"
node/10017864813,node,10017864813,fast_food,House of Tea,,,,,"Fr 00:00-12:00,13:30-00:00;Mo-Th,Sa-Su 00:00-24:00",,,House of Tea Cafeteria,burger,,24.4121547,54.5057675,"{""amenity"": ""fast_food"", ""contact:email"": ""houseoftea1992@gmail.com"", ""contact:phone"": ""+971 2 552 4244;+971 54 998 3529"", ""contact:website"": ""https://houseoftea.ae"", ""cuisine"": ""burger"", ""name"": ""House of Tea"", ""opening_hours"": ""Fr 00:00-12:00,13:30-00:00;Mo-Th,Sa-Su 00:00-24:00"", ""operator"": ""House of Tea Cafeteria"", ""takeaway"": ""only""}"
node/10017864814,node,10017864814,fast_food,House of Tea,,,,,Mo-Su 05:00-01:00,,,House of Tea Cafeteria,burger,,24.455972,54.384827,"{""amenity"": ""fast_food"", ""contact:email"": ""houseoftea1992@gmail.com"", ""contact:phone"": ""+971 2 443 4177;+971 56 508 3989"", ""contact:website"": ""https://houseoftea.ae"", ""cuisine"": ""burger"", ""name"": ""House of Tea"", ""opening_hours"": ""Mo-Su 05:00-01:00"", ""operator"": ""House of Tea Cafeteria"", ""takeaway"": ""only""}"
node/10017864815,node,10017864815,fast_food,House of Tea,,,,,Mo-Su 05:00-01:00,,,House of Tea Cafeteria,burger,,24.4764201,54.354271,"{""amenity"": ""fast_food"", ""contact:email"": ""houseoftea1992@gmail.com"", ""contact:phone"": ""+971 2 658 3866;+971 56 508 3982"", ""contact:website"": ""https://houseoftea.ae"", ""cuisine"": ""burger"", ""name"": ""House of Tea"", ""opening_hours"": ""Mo-Su 05:00-01:00"", ""operator"": ""House of Tea Cafeteria"", ""takeaway"": ""only""}"
node/10017864816,node,10017864816,fast_food,House of Tea,,,,,"Fr 05:00-12:45,13:30-01:00; Mo-Th,Sa-Su 05:00-01:00",,,House of Tea Cafeteria,burger,,24.4752801,54.37446,"{""amenity"": ""fast_food"", ""contact:email"": ""houseoftea1992@gmail.com"", ""contact:phone"": ""+971 2 641 9109;+971 56 508 3990"", ""contact:website"": ""https://houseoftea.ae"", ""cuisine"": ""burger"", ""name"": ""House of Tea"", ""opening_hours"": ""Fr 05:00-12:45,13:30-01:00; Mo-Th,Sa-Su 05:00-01:00"", ""operator"": ""House of Tea Cafeteria"", ""takeaway"": ""only""}"
node/10017927617,node,10017927617,fast_food,House of Tea,,,,,Mo-Su 05:00-02:00,,,House of Tea Cafeteria,burger,,24.2962386,54.6419084,"{""amenity"": ""fast_food"", ""contact:email"": ""houseoftea1992@gmail.com"", ""contact:phone"": ""+971 2 585 8484;+971 56 508 3983"", ""contact:website"": ""https://houseoftea.ae"", ""cuisine"": ""burger"", ""name"": ""House of Tea"", ""opening_hours"": ""Mo-Su 05:00-02:00"", ""operator"": ""House of Tea Cafeteria"", ""takeaway"": ""only""}"
node/10017927618,node,10017927618,fast_food,House of Tea,,,,,24/7,,,House of Tea Cafeteria,burger,,24.4324124,54.4354777,"{""amenity"": ""fast_food"", ""contact:email"": ""houseoftea1992@gmail.com"", ""contact:phone"": ""+971 2 665 5999;+971 54 994 1649"", ""contact:website"": ""https://houseoftea.ae"", ""cuisine"": ""burger"", ""name"": ""House of Tea"", ""opening_hours"": ""24/7"", ""operator"": ""House of Tea Cafeteria"", ""takeaway"": ""only""}"
node/10017927619,node,10017927619,fast_food,House of Tea,,,,,Mo-Su 06:00-01:00,,,House of Tea Cafeteria,burger,,24.463411,54.3807619,"{""amenity"": ""fast_food"", ""contact:email"": ""houseoftea1992@gmail.com"", ""contact:phone"": ""+971 2 562 4455;+971 54 998 7439"", ""contact:website"": ""https://houseoftea.ae"", ""cuisine"": ""burger"", ""name"": ""House of Tea"", ""opening_hours"": ""Mo-Su 06:00-01:00"", ""operator"": ""House of Tea Cafeteria"", ""takeaway"": ""only""}"
node/10017927620,node,10017927620,fast_food,House of Tea,,,,,Mo-Su 06:00-00:00,,,House of Tea Cafeteria,burger,,24.441939,54.711463,"{""amenity"": ""fast_food"", ""contact:email"": ""houseoftea1992@gmail.com"", ""contact:phone"": ""+971 2 877 7333;+971 54 994 1646"", ""contact:website"": ""https://houseoftea.ae"", ""cuisine"": ""burger"", ""name"": ""House of Tea"", ""opening_hours"": ""Mo-Su 06:00-00:00"", ""operator"": ""House of Tea Cafeteria"", ""takeaway"": ""only""}"
node/10017927621,node,10017927621,fast_food,House of Tea,,,,,24/7,,,House of Tea Cafeteria,burger,,24.3435557,54.5368436,"{""amenity"": ""fast_food"", ""contact:email"": ""houseoftea1992@gmail.com"", ""contact:phone"": ""+971 2 558 6633;+971 54 998 3530"", ""contact:website"": ""https://houseoftea.ae"", ""cuisine"": ""burger"", ""name"": ""House of Tea"", ""opening_hours"": ""24/7"", ""operator"": ""House of Tea Cafeteria"", ""takeaway"": ""only""}"
node/10017927622,node,10017927622,fast_food,House of Tea,,,,,"Fr 06:00-12:30,13:30-00:00;Mo-Th,Sa-Su 06:00-00:00",,,House of Tea Cafeteria,burger,,24.2998127,54.6249568,"{""amenity"": ""fast_food"", ""contact:email"": ""houseoftea1992@gmail.com"", ""contact:phone"": ""+971 2 583 6367;+971 56 508 3991"", ""contact:website"": ""https://houseoftea.ae"", ""cuisine"": ""burger"", ""name"": ""House of Tea"", ""opening_hours"": ""Fr 06:00-12:30,13:30-00:00;Mo-Th,Sa-Su 06:00-00:00"", ""operator"": ""House of Tea Cafeteria"", ""takeaway"": ""only""}"
node/10017927623,node,10017927623,fast_food,House of Tea,,,,,24/7,,,House of Tea Cafeteria,burger,,24.3215871,54.6159552,"{""amenity"": ""fast_food"", ""contact:email"": ""houseoftea1992@gmail.com"", ""contact:phone"": ""+971 54 994 1647;+971 56 323 9623"", ""contact:website"": ""https://houseoftea.ae"", ""cuisine"": ""burger"", ""name"": ""House of Tea"", ""opening_hours"": ""24/7"", ""operator"": ""House of Tea Cafeteria"", ""takeaway"": ""only""}"
node/10017927625,node,10017927625,fast_food,House of Tea,,,,,Mo-Su 05:30-01:30,,,House of Tea Cafeteria,burger,,24.4936975,54.3710093,"{""amenity"": ""fast_food"", ""contact:email"": ""houseoftea1992@gmail.com"", ""contact:phone"": ""+971 2 674 5277;+971 50 204 9965"", ""contact:website"": ""https://houseoftea.ae"", ""cuisine"": ""burger"", ""name"": ""House of Tea"", ""opening_hours"": ""Mo-Su 05:30-01:30"", ""operator"": ""House of Tea Cafeteria"", ""takeaway"": ""only""}"
node/10017927626,node,10017927626,fast_food,House of Tea,,,,,Mo-Su 04:30-01:30,,,House of Tea Cafeteria,burger,,24.4549092,54.7235334,"{""amenity"": ""fast_food"", ""contact:email"": ""houseoftea1992@gmail.com"", ""contact:phone"": ""+971 2 877 7343;+971 54 994 1662"", ""contact:website"": ""https://houseoftea.ae"", ""cuisine"": ""burger"", ""name"": ""House of Tea"", ""opening_hours"": ""Mo-Su 04:30-01:30"", ""operator"": ""House of Tea Cafeteria"", ""takeaway"": ""only""}"
node/10018259488,node,10018259488,fast_food,Just Burger,,,,,Mo-Su 12:00-04:00,,,Just Burger,burger,,24.4224564,54.5649719,"{""amenity"": ""fast_food"", ""contact:email"": ""gcgroup.uae@gmail.com"", ""contact:facebook"": ""https://facebook.com/justburger.world"", ""contact:instagram"": ""https://instagram.com/just_burger_uae"", ""contact:linkedin"": ""https://linkedin.com/company/justburger"", ""contact:phone"": ""+971 2 677 1377;+971 56 525 1797;+971 600 502005"", ""cuisine"": ""burger"", ""delivery"": ""yes"", ""name"": ""Just Burger"", ""opening_hours"": ""Mo-Su 12:00-04:00"", ""operator"": ""Just Burger""}"
node/10018259490,node,10018259490,fast_food,Just Burger,,,,,Mo-Su 12:00-04:00,,,Just Burger,burger,,24.4521013,54.740839,"{""amenity"": ""fast_food"", ""contact:email"": ""gcgroup.uae@gmail.com"", ""contact:facebook"": ""https://facebook.com/justburger.world"", ""contact:instagram"": ""https://instagram.com/just_burger_uae"", ""contact:linkedin"": ""https://linkedin.com/company/justburger"", ""contact:phone"": ""+971 2 679 1547;+971 56 549 6038;+971 600 502005"", ""cuisine"": ""burger"", ""delivery"": ""yes"", ""name"": ""Just Burger"", ""opening_hours"": ""Mo-Su 12:00-04:00"", ""operator"": ""Just Burger""}"
node/10018259495,node,10018259495,fast_food,Just Burger,,,,,Mo-Su 12:00-04:00,,,Just Burger,burger,,24.3440908,54.537313,"{""amenity"": ""fast_food"", ""contact:email"": ""gcgroup.uae@gmail.com"", ""contact:facebook"": ""https://facebook.com/justburger.world"", ""contact:instagram"": ""https://instagram.com/just_burger_uae"", ""contact:linkedin"": ""https://linkedin.com/company/justburger"", ""contact:phone"": ""+971 2 558 8284;+971 56 991 1260;+971 600 502005"", ""cuisine"": ""burger"", ""delivery"": ""yes"", ""name"": ""Just Burger"", ""opening_hours"": ""Mo-Su 12:00-04:00"", ""operator"": ""Just Burger""}"
node/10029590078,node,10029590078,fast_food,Just Fresh,,,,,Mo-Su 10:00-04:00,,,Just Fresh,ice_cream,,24.3441569,54.5373023,"{""amenity"": ""fast_food"", ""contact:email"": ""gcgroup.uae@gmail.com"", ""contact:instagram"": ""https://instagram.com/just_fresh_uae"", ""contact:phone"": ""+971 56 991 1450;+971 600 502005"", ""cuisine"": ""ice_cream"", ""drink:juice"": ""yes"", ""name"": ""Just Fresh"", ""opening_hours"": ""Mo-Su 10:00-04:00"", ""operator"": ""Just Fresh""}"
node/10029590082,node,10029590082,fast_food,Just Fresh,,,,,Mo-Su 10:00-04:00,,,Just Fresh,ice_cream,,24.4770133,54.3550328,"{""amenity"": ""fast_food"", ""contact:email"": ""gcgroup.uae@gmail.com"", ""contact:instagram"": ""https://instagram.com/just_fresh_uae"", ""contact:phone"": ""+971 2 622 3383;+971 56 525 1763;+971 600 502005"", ""cuisine"": ""ice_cream"", ""drink:juice"": ""yes"", ""name"": ""Just Fresh"", ""opening_hours"": ""Mo-Su 10:00-04:00"", ""operator"": ""Just Fresh""}"
node/10031839602,node,10031839602,convenience,Baqala,,,,,,,,Baqala,,,24.5204678,54.4362011,"{""addr:city"": ""أبو ظبي"", ""addr:city:ar"": ""أبو ظبي"", ""addr:city:en"": ""Abu Dhabi"", ""addr:city:ur"": ""ابوظہبی"", ""addr:postcode"": ""22602"", ""name"": ""Baqala"", ""operator"": ""Baqala"", ""shop"": ""convenience""}"
node/1003388256,node,1003388256,furniture,Al Hawai Office Furniture and Equipment,,,,,,,,,,,24.4578875,54.3815674,"{""name"": ""Al Hawai Office Furniture and Equipment"", ""name:en"": ""Al Hawai Office Furniture and Equipment"", ""shop"": ""furniture""}"
node/10045567322,node,10045567322,restaurants,Salt Mango Restaurant,,,,,,,,,,,24.465677,54.375717,"{""amenity"": ""restaurant"", ""name"": ""Salt Mango Restaurant""}"
node/10050533762,node,10050533762,fast_food,Al Akkawi Flower Cafeteria,,,,,,,,,,,24.3367106,54.5349016,"{""amenity"": ""fast_food"", ""name"": ""Al Akkawi Flower Cafeteria""}"
node/10068788272,node,10068788272,restaurants,Din Tai Fung,Din Tai Fung,Q699142,,,Su-Th 11:00-22:00; Fr-Sa 11:00-00:00,,+97124467273,,taiwanese,,24.5012276,54.3902691,"{""addr:city"": ""أبو ظبي"", ""addr:city:ar"": ""أبو ظبي"", ""addr:city:en"": ""Abu Dhabi"", ""addr:city:ur"": ""ابوظہبی"", ""amenity"": ""restaurant"", ""brand"": ""Din Tai Fung"", ""brand:en"": ""Din Tai Fung"", ""brand:wikidata"": ""Q699142"", ""brand:zh"": ""鼎泰豐"", ""cuisine"": ""taiwanese"", ""indoor_seating"": ""yes"", ""name"": ""Din Tai Fung"", ""name:en"": ""Din Tai Fung"", ""name:zh"": ""鼎泰豐"", ""opening_hours"": ""Su-Th 11:00-22:00; Fr-Sa 11:00-00:00"", ""outdoor_seating"": ""no"", ""phone"": ""+97124467273""}"
node/10068788273,node,10068788273,restaurants,Blaze Pizza,,,,,,,,,pizza,,24.5012576,54.3903767,"{""addr:city"": ""أبو ظبي"", ""addr:city:ar"": ""أبو ظبي"", ""addr:city:en"": ""Abu Dhabi"", ""addr:city:ur"": ""ابوظہبی"", ""addr:postcode"": ""22647"", ""amenity"": ""restaurant"", ""cuisine"": ""pizza"", ""indoor_seating"": ""yes"", ""name"": ""Blaze Pizza"", ""outdoor_seating"": ""no""}"
node/10068788274,node,10068788274,restaurants,Coya,,,,,,,,,,,24.5021742,54.3880529,"{""addr:city"": ""أبو ظبي"", ""addr:city:ar"": ""أبو ظبي"", ""addr:city:en"": ""Abu Dhabi"", ""addr:city:ur"": ""ابوظہبی"", ""addr:postcode"": ""22646"", ""amenity"": ""restaurant"", ""indoor_seating"": ""yes"", ""name"": ""Coya"", ""outdoor_seating"": ""yes""}"
node/10068830551,node,10068830551,electronics,Apple Store,Apple Store,Q421253,,,,,,,,,24.5013132,54.3883852,"{""addr:city"": ""أبو ظبي"", ""addr:city:ar"": ""أبو ظبي"", ""addr:city:en"": ""Abu Dhabi"", ""addr:city:ur"": ""ابوظہبی"", ""addr:postcode"": ""22646"", ""brand"": ""Apple Store"", ""brand:wikidata"": ""Q421253"", ""name"": ""Apple Store"", ""payment:app"": ""yes"", ""payment:cash"": ""yes"", ""payment:credit_cards"": ""yes"", ""shop"": ""electronics"", ""short_name"": ""Apple""}"
node/10075547592,node,10075547592,bus_stops,Saadiyat New York University 2,,,,,,,,Abu Dhabi Department Of Transportation,,,24.5222854,54.434488,"{""bench"": ""no"", ""bus"": ""yes"", ""departures_board"": ""timetable"", ""highway"": ""bus_stop"", ""name"": ""Saadiyat New York University 2"", ""network"": ""City Bus"", ""operator"": ""Abu Dhabi Department Of Transportation"", ""public_transport"": ""platform"", ""ref"": ""1180B"", ""shelter"": ""no"", ""surface"": ""paved""}"
node/10075547593,node,10075547593,bus_stops,Saadiyat New York University 1 / Laffan St,,,,,,,,Abu Dhabi Department Of Transportation,,,24.5238079,54.4328672,"{""bench"": ""no"", ""bus"": ""yes"", ""departures_board"": ""timetable"", ""highway"": ""bus_stop"", ""name"": ""Saadiyat New York University 1 / Laffan St"", ""network"": ""City Bus"", ""operator"": ""Abu Dhabi Department Of Transportation"", ""public_transport"": ""platform"", ""ref"": ""1178B"", ""shelter"": ""no"", ""surface"": ""paved"", ""tactile_paving"": ""yes""}"
node/10077580669,node,10077580669,bus_stops,Al Zeina,,,,,,,,,,,24.4566705,54.6169383,"{""bench"": ""yes"", ""bin"": ""yes"", ""bus"": ""yes"", ""highway"": ""bus_stop"", ""lit"": ""yes"", ""name"": ""Al Zeina"", ""public_transport"": ""platform"", ""shelter"": ""yes""}"
node/10114018618,node,10114018618,fast_food,,,,,,,,,,,,24.4778468,54.3560371,"{""amenity"": ""fast_food"", ""name:en"": ""Shawarma Molok Alsham""}"
node/10114029217,node,10114029217,restaurants,,,,,,,,,,,,24.4783402,54.3566388,"{""amenity"": ""restaurant"", ""name:en"": ""Amir Sham Restaurant & Grill""}"
node/10114029218,node,10114029218,restaurants,,,,,,Mo-Su 06:30-23:30,,,,,,24.4340643,54.4365254,"{""amenity"": ""restaurant"", ""name:en"": ""Afdal Restaurant & Grill"", ""opening_hours"": ""Mo-Su 06:30-23:30""}"
node/10121219343,node,10121219343,restaurants,Brisket,,,,,,,,,barbecue,,24.5281731,54.3657442,"{""addr:city"": ""أبو ظبي"", ""addr:city:ar"": ""أبو ظبي"", ""addr:city:en"": ""Abu Dhabi"", ""addr:city:ur"": ""ابوظہبی"", ""addr:postcode"": ""22300"", ""amenity"": ""restaurant"", ""cuisine"": ""barbecue"", ""name"": ""Brisket""}"
node/10121506928,node,10121506928,furniture,Dar Al Ain Furnishing,,,,,,,,,,,24.5177203,54.3734592,"{""addr:city"": ""أبو ظبي"", ""addr:city:ar"": ""أبو ظبي"", ""addr:city:en"": ""Abu Dhabi"", ""addr:city:ur"": ""ابوظہبی"", ""addr:neighbourhood"": ""MiZa"", ""addr:postcode"": ""22333"", ""name"": ""Dar Al Ain Furnishing"", ""shop"": ""furniture""}"
node/10121506931,node,10121506931,furniture,Al Futaihi Furnishings,,,,,,,,,,,24.5175202,54.3731444,"{""addr:city"": ""أبو ظبي"", ""addr:city:ar"": ""أبو ظبي"", ""addr:city:en"": ""Abu Dhabi"", ""addr:city:ur"": ""ابوظہبی"", ""addr:neighbourhood"": ""MiZa"", ""addr:postcode"": ""22333"", ""name"": ""Al Futaihi Furnishings"", ""shop"": ""furniture""}"
node/10121506939,node,10121506939,furniture,Abu Amer Furnishings,,,,,,,,,,,24.5174817,54.3730852,"{""addr:city"": ""أبو ظبي"", ""addr:city:ar"": ""أبو ظبي"", ""addr:city:en"": ""Abu Dhabi"", ""addr:city:ur"": ""ابوظہبی"", ""addr:neighbourhood"": ""MiZa"", ""addr:postcode"": ""22333"", ""name"": ""Abu Amer Furnishings"", ""shop"": ""furniture""}"
node/10143278075,node,10143278075,bus_stops,,,,,,,,,,,,24.4876653,54.4015002,"{""bus"": ""yes"", ""public_transport"": ""stop_position""}"
node/10171208468,node,10171208468,bus_stops,,,,,,,,,,,,24.4079143,54.5704602,"{""bus"": ""yes"", ""highway"": ""bus_stop"", ""public_transport"": ""platform""}"
node/10177719516,node,10177719516,restaurants,Al Farah Restaurant,,,,,,,,,,,24.3286041,54.5325097,"{""amenity"": ""restaurant"", ""name"": ""Al Farah Restaurant""}"
node/10187694217,node,10187694217,bus_stops,Khaleej Al Arabi St / Bus Interchange,,,,,,,,,,,24.3999177,54.4968777,"{""bus"": ""yes"", ""highway"": ""bus_stop"", ""name"": ""Khaleej Al Arabi St / Bus Interchange"", ""public_transport"": ""platform"", ""ref"": ""3085B""}"
node/10221096609,node,10221096609,mosques,,,,شارع الميناء,الزاهية,,,,,,,24.5014132,54.3717522,"{""addr:city"": ""أبوظبي"", ""addr:city:en"": ""Abu Dhabi"", ""addr:country"": ""AE"", ""addr:district"": ""الزاهية"", ""addr:district:en"": ""Al Zahiyah"", ""addr:housenumber"": ""121"", ""addr:postcode"": ""22201"", ""addr:street"": ""شارع الميناء"", ""addr:street:en"": ""Al Meena Street"", ""addr:subdistrict"": ""شرق 12"", ""addr:subdistrict:en"": ""E12"", ""amenity"": ""place_of_worship"", ""building"": ""mosque"", ""religion"": ""muslim""}"
node/10236739958,node,10236739958,restaurants,Sagar Fish Grill,,,,,,,,,,,24.3315032,54.5346177,"{""amenity"": ""restaurant"", ""name"": ""Sagar Fish Grill""}"
node/10245893836,node,10245893836,restaurants,Dine Out Restaurant,,,,,,,,,,,24.3249982,54.5386514,"{""amenity"": ""restaurant"", ""name"": ""Dine Out Restaurant""}"
node/10253390853,node,10253390853,restaurants,Salma’s Snack Shack,,,,,,,,,,,24.4879213,54.5994277,"{""amenity"": ""restaurant"", ""name"": ""Salma’s Snack Shack""}"
node/10254037702,node,10254037702,restaurants,Dana’s Diner,,,,,,,,,,,24.4886407,54.600913,"{""amenity"": ""restaurant"", ""name"": ""Dana’s Diner""}"
node/10255013767,node,10255013767,restaurants,360,,,,,,,,,,,24.5139815,54.3902417,"{""addr:city"": ""أبو ظبي"", ""addr:city:ar"": ""أبو ظبي"", ""addr:city:en"": ""Abu Dhabi"", ""addr:city:ur"": ""ابوظہبی"", ""amenity"": ""restaurant"", ""name"": ""360""}"
node/10255013768,node,10255013768,restaurants,Zest,,,,,,,,,,,24.5133622,54.3892163,"{""amenity"": ""restaurant"", ""name"": ""Zest""}"
node/10255126309,node,10255126309,restaurants,,,,,,,,,,international,,24.4522711,54.6049289,"{""amenity"": ""restaurant"", ""cuisine"": ""international"", ""name:en"": ""Berri’s UAE""}"
node/10274656887,node,10274656887,restaurants,Cafeteria Tea World,,,,,,,,,,,24.3248115,54.53427,"{""amenity"": ""restaurant"", ""name"": ""Cafeteria Tea World""}"
node/10277109619,node,10277109619,electronics,Happy Baby Mobile Phones,,,,,,,,,,,24.3247832,54.5335696,"{""name"": ""Happy Baby Mobile Phones"", ""shop"": ""electronics""}"
node/10279363738,node,10279363738,restaurants,Topi Vappa Biriyani,,,,,,,,,,,24.3243105,54.5345485,"{""amenity"": ""restaurant"", ""name"": ""Topi Vappa Biriyani""}"
node/10284239337,node,10284239337,electronics,Prominent Phones and Gifts,,,,,,,,,,,24.3223501,54.5355573,"{""name"": ""Prominent Phones and Gifts"", ""shop"": ""electronics""}"
node/10286043817,node,10286043817,clothes,Dazzler Gents Wear,,,,,,,,,,,24.3247522,54.5320084,"{""name"": ""Dazzler Gents Wear"", ""shop"": ""clothes""}"
node/10286045404,node,10286045404,pharmacies,Al Bahar Al Ahmar Pharmacy,,,,,,,,,,,24.3247403,54.5319243,"{""amenity"": ""pharmacy"", ""name"": ""Al Bahar Al Ahmar Pharmacy""}"
node/10308309571,node,10308309571,tourist_landmarks,,,,,,,,,,,,24.4865018,54.3558955,"{""historic"": ""monument"", ""image"": ""https://photos.app.goo.gl/4CxBU3jeeih1wK3N8""}"
node/10308309572,node,10308309572,tourist_landmarks,,,,,,,,,,,,24.4863649,54.3560726,"{""historic"": ""monument"", ""image"": ""https://photos.app.goo.gl/imUJX5z6WNdRENJE8""}"
node/10308309574,node,10308309574,tourist_landmarks,,,,,,,,,,,,24.4869622,54.3555544,"{""historic"": ""monument""}"
node/10308435309,node,10308435309,restaurants,,,,,,Su-Sa 11:00-02:00,,+971 02 886 7314,,american;burger,,24.4897013,54.3557425,"{""amenity"": ""restaurant"", ""contact:instagram"": ""https://www.instagram.com/eatpickl/"", ""cuisine"": ""american;burger"", ""diet:vegan"": ""yes"", ""diet:vegetarian"": ""yes"", ""internet_access"": ""wlan"", ""name:en"": ""Pickl"", ""opening_hours"": ""Su-Sa 11:00-02:00"", ""phone"": ""+971 02 886 7314""}"
node/10312646909,node,10312646909,coffee_shops,,,,,,Su-Sa 11:00-00:00,https://instagram.com/sangkwaeuah,0566699186,,asian;chinese;tea,,24.4929534,54.368529,"{""amenity"": ""cafe"", ""cuisine"": ""asian;chinese;tea"", ""name:en"": ""Sangkwae Fresh Fruit & Bubble Tea"", ""opening_hours"": ""Su-Sa 11:00-00:00"", ""phone"": ""0566699186"", ""website"": ""https://instagram.com/sangkwaeuah""}"
node/10312969909,node,10312969909,bakeries,Egyptian Bakery,,,,,24/7,,,,,,24.4583119,54.3887094,"{""name"": ""Egyptian Bakery"", ""opening_hours"": ""24/7"", ""shop"": ""bakery""}"
node/10312970009,node,10312970009,furniture,Royal Furniture,,,,,,,,,,,24.4587464,54.3887812,"{""name"": ""Royal Furniture"", ""shop"": ""furniture""}"
node/10325385310,node,10325385310,bus_stops,,,,,,,,,,,,24.4888725,54.3671621,"{""highway"": ""bus_stop"", ""name:en"": ""7, 8, 42, 43, 44, 55, 56, 67""}"
node/1032767177,node,1032767177,restaurants,The Meat Co.,,,,,,,+971 2 558 1713,,steak,,24.4090332,54.4906656,"{""addr:city"": ""أبو ظبي"", ""addr:city:ar"": ""أبو ظبي"", ""addr:city:en"": ""Abu Dhabi"", ""addr:city:ur"": ""ابوظہبی"", ""addr:country"": ""AE"", ""addr:housename"": ""Souk Qaryat al Beri"", ""amenity"": ""restaurant"", ""cuisine"": ""steak"", ""name"": ""The Meat Co."", ""phone"": ""+971 2 558 1713""}"
node/1032767186,node,1032767186,restaurants,Sho Cho,,,,,,,+971 2 558 1117,,sushi,,24.4090926,54.4906676,"{""addr:city"": ""أبو ظبي"", ""addr:city:ar"": ""أبو ظبي"", ""addr:city:en"": ""Abu Dhabi"", ""addr:city:ur"": ""ابوظہبی"", ""addr:country"": ""AE"", ""addr:housename"": ""Souk Qaryat al Beri"", ""amenity"": ""restaurant"", ""cuisine"": ""sushi"", ""name"": ""Sho Cho"", ""phone"": ""+971 2 558 1117""}"
node/10328510509,node,10328510509,bus_stops,,,,,,,,,,,,24.4913996,54.36224,"{""highway"": ""bus_stop"", ""name:en"": ""A2, 102, 110, 111, 155, 160, 300, 401, 404, 405"", ""shelter"": ""yes""}"
node/1066729493,node,1066729493,coffee_shops,Starbucks,,,,,,,,,,,24.4898717,54.3628881,"{""amenity"": ""cafe"", ""name"": ""Starbucks"", ""name:en"": ""Starbucks""}"
node/1068271830,node,1068271830,pharmacies,City Pharmacy Co.,,,,,,,,,,,24.4896836,54.3626151,"{""amenity"": ""pharmacy"", ""name"": ""City Pharmacy Co."", ""name:en"": ""City Pharmacy Co.""}"
node/1068276359,node,1068276359,restaurants,Al Rousha,,,,,,,,,,,24.4908389,54.3611943,"{""amenity"": ""restaurant"", ""name"": ""Al Rousha"", ""name:en"": ""Al Rousha""}"
node/1068369586,node,1068369586,pharmacies,Al Manara,,,,,,,,,,,24.4913341,54.3609309,"{""amenity"": ""pharmacy"", ""name"": ""Al Manara"", ""name:en"": ""Al Manara""}"
node/1068370413,node,1068370413,pharmacies,Al Noor Pharmacy,,,,,,,,,,,24.4909279,54.3606422,"{""amenity"": ""pharmacy"", ""name"": ""Al Noor Pharmacy"", ""name:en"": ""Al Noor Pharmacy""}"
node/1068371745,node,1068371745,pharmacies,Knights Pharmacy,,,,,,,,,,,24.4900311,54.3593011,"{""amenity"": ""pharmacy"", ""name"": ""Knights Pharmacy"", ""name:en"": ""Knights Pharmacy""}"
node/1069810622,node,1069810622,fast_food,Burger King,Burger King,Q177054,,,,,,,burger,,24.4894055,54.3633133,"{""amenity"": ""fast_food"", ""brand"": ""Burger King"", ""brand:wikidata"": ""Q177054"", ""brand:wikipedia"": ""en:Burger King"", ""cuisine"": ""burger"", ""name"": ""Burger King"", ""name:en"": ""Burger King"", ""takeaway"": ""yes""}"
node/10699457138,node,10699457138,bus_stops,,,,,,,,,,,,24.4770353,54.3801114,"{""bus"": ""yes"", ""public_transport"": ""stop_position""}"
node/10732829553,node,10732829553,parking,,,,,,,,,,,,24.4446331,54.5749786,"{""amenity"": ""parking""}"
node/10732829564,node,10732829564,parking,,,,,,,,,,,,24.4445961,54.5749441,"{""amenity"": ""parking""}"
node/10734204227,node,10734204227,restaurants,,,,,,,,,,,,24.4272274,54.6008026,"{""amenity"": ""restaurant"", ""name:en"": ""BBC""}"
node/10734204228,node,10734204228,bakeries,,,,,,,,,,,,24.427206,54.6007302,"{""shop"": ""bakery""}"
node/10734204606,node,10734204606,supermarkets,Earth,,,,,,https://www.earthretail.ae/,+791 2 546 2285,Earth Supermarket LLC,,,24.4273439,54.600665,"{""name"": ""Earth"", ""operator"": ""Earth Supermarket LLC"", ""phone"": ""+791 2 546 2285"", ""shop"": ""supermarket"", ""website"": ""https://www.earthretail.ae/""}"
node/10749969313,node,10749969313,bus_stops,,,,,,,,,,,,24.4330522,54.6041068,"{""highway"": ""bus_stop""}"
node/10749981812,node,10749981812,bus_stops,,,,,,,,,,,,24.4351506,54.6030446,"{""highway"": ""bus_stop"", ""name:en"": ""K6""}"
node/10752366205,node,10752366205,convenience,,,,,,,,,,,,24.439879,54.6069322,"{""shop"": ""convenience""}"
node/10763489405,node,10763489405,restaurants,,,,,,,,,,,,24.4096781,54.5650267,"{""amenity"": ""restaurant""}"
node/10763489505,node,10763489505,fast_food,,,,,,,,,,,,24.4099738,54.5649079,"{""amenity"": ""fast_food"", ""name:en"": ""Papa John's""}"
node/10766083509,node,10766083509,restaurants,Marmellata Bakery,,,شارع المُتْقِن,,We-Su 17:00-20:00,https://www.marmellatalove.com/,+971 55 802 9355,,pizza,,24.5285954,54.3656699,"{""addr:street"": ""شارع المُتْقِن"", ""amenity"": ""restaurant"", ""contact:instagram"": ""marmellatalove"", ""cuisine"": ""pizza"", ""internet_access"": ""no"", ""level"": ""0"", ""name"": ""Marmellata Bakery"", ""opening_hours"": ""We-Su 17:00-20:00"", ""outdoor_seating"": ""yes"", ""phone"": ""+971 55 802 9355"", ""takeaway"": ""yes"", ""toilets"": ""no"", ""website"": ""https://www.marmellatalove.com/"", ""wheelchair"": ""no""}"
node/10781917890,node,10781917890,fast_food,Domino's,Domino's,Q839466,Al Bateen Street,,,,,,pizza,,24.4684566,54.3388503,"{""addr:street"": ""Al Bateen Street"", ""amenity"": ""fast_food"", ""brand"": ""Domino's"", ""brand:wikidata"": ""Q839466"", ""cuisine"": ""pizza"", ""name"": ""Domino's"", ""name:en"": ""Domino's Pizza"", ""takeaway"": ""yes""}"
node/10783738905,node,10783738905,clothes,,,,"Al Zeina Complex, Block C - Abu Dhabi - United Arab Emirates",,Su-Sa 07:00-22:00,,,,,,24.4558515,54.6146054,"{""addr:street"": ""Al Zeina Complex, Block C - Abu Dhabi - United Arab Emirates"", ""name:en"": ""LOCAL – Cafe & barbershop"", ""opening_hours"": ""Su-Sa 07:00-22:00"", ""shop"": ""clothes""}"
node/10783753105,node,10783753105,tourist_landmarks,,,,Jacques Chirac St - Al Saadiyat Island - Cultural District - Abu Dhabi - United Arab Emirates,,Su-Sa 10:00-17:00,,,,,,24.5310661,54.4058288,"{""addr:street"": ""Jacques Chirac St - Al Saadiyat Island - Cultural District - Abu Dhabi - United Arab Emirates"", ""name:en"": ""Abrahamic Family House"", ""opening_hours"": ""Su-Sa 10:00-17:00"", ""tourism"": ""museum""}"
node/10783767105,node,10783767105,restaurants,,,,,,Su-Sa 12:00-23:00,,,,,,24.4838549,54.3566678,"{""amenity"": ""restaurant"", ""name:en"": ""Erth Restaurant"", ""opening_hours"": ""Su-Sa 12:00-23:00""}"
node/10816722511,node,10816722511,supermarkets,Coop,,,,,,,,,,,24.4198839,54.5786869,"{""name"": ""Coop"", ""shop"": ""supermarket""}"
node/10824379323,node,10824379323,restaurants,AlBeit AlAteeq Restaurant,,,,,,,+971 2 666 3000,,lebanese;middle_eastern,,24.4172251,54.4955909,"{""amenity"": ""restaurant"", ""cuisine"": ""lebanese;middle_eastern"", ""diet:meat"": ""yes"", ""diet:vegan"": ""yes"", ""diet:vegetarian"": ""yes"", ""name"": ""AlBeit AlAteeq Restaurant"", ""phone"": ""+971 2 666 3000""}"
node/10827664305,node,10827664305,restaurants,49er's — Steakhouse & Club,,,,,"PH,Mo-Su 12:00-04:00",,,,,,24.498737,54.3807225,"{""air_conditioning"": ""yes"", ""amenity"": ""restaurant"", ""name"": ""49er's — Steakhouse & Club"", ""opening_hours"": ""PH,Mo-Su 12:00-04:00"", ""payment:credit_cards"": ""yes"", ""payment:debit_cards"": ""yes"", ""smoking"": ""no"", ""wheelchair"": ""yes""}"
node/10829541843,node,10829541843,coffee_shops,Aptitude Café,,,,,09:00-22:00,https://www.louvreabudhabi.ae/en/visit/aptitude-cafe,+971 50 988 5445,,coffee_shop;international,,24.5340806,54.4009201,"{""addr:city"": ""أبو ظبي"", ""addr:city:ar"": ""أبو ظبي"", ""addr:city:en"": ""Abu Dhabi"", ""addr:city:ur"": ""ابوظہبی"", ""addr:postcode"": ""22600"", ""amenity"": ""cafe"", ""cuisine"": ""coffee_shop;international"", ""internet_access"": ""wlan"", ""internet_access:fee"": ""no"", ""name"": ""Aptitude Café"", ""opening_hours"": ""09:00-22:00"", ""outdoor_seating"": ""yes"", ""phone"": ""+971 50 988 5445"", ""website"": ""https://www.louvreabudhabi.ae/en/visit/aptitude-cafe""}"
node/10832029005,node,10832029005,restaurants,Dragon Bao Bao,,,,,,,,,,,24.4915242,54.3736455,"{""amenity"": ""restaurant"", ""name"": ""Dragon Bao Bao""}"
node/1083721047,node,1083721047,coffee_shops,Cafe Arabia,,,Mohammed Bin Khalifa Street (15th Street),,"Mo-We 08:00-22:30, Th-Fr 08:00-22:00, Sa-Su 08:00-22:30",https://www.facebook.com/CafeArabia,+971 2 643 9699,,,,24.4558765,54.3793157,"{""addr:city"": ""أبو ظبي"", ""addr:city:ar"": ""أبو ظبي"", ""addr:city:en"": ""Abu Dhabi"", ""addr:city:ur"": ""ابوظہبی"", ""addr:country"": ""AE"", ""addr:street"": ""Mohammed Bin Khalifa Street (15th Street)"", ""amenity"": ""cafe"", ""name"": ""Cafe Arabia"", ""name:en"": ""Cafe Arabia"", ""opening_hours"": ""Mo-We 08:00-22:30, Th-Fr 08:00-22:00, Sa-Su 08:00-22:30"", ""phone"": ""+971 2 643 9699"", ""smoking"": ""outside"", ""website"": ""https://www.facebook.com/CafeArabia""}"
node/10886053135,node,10886053135,furniture,Shine Smart Furniture,,,,,,,,,,,24.3409378,54.5348393,"{""name"": ""Shine Smart Furniture"", ""shop"": ""furniture""}"
node/10886066081,node,10886066081,restaurants,Njangaddakadda Restaurant,,,,,,,,,,,24.3412653,54.5348227,"{""amenity"": ""restaurant"", ""name"": ""Njangaddakadda Restaurant""}"
node/10886070876,node,10886070876,coffee_shops,Alexandria Cafe,,,,,,,,,,,24.3415144,54.5341253,"{""amenity"": ""cafe"", ""name"": ""Alexandria Cafe""}"
node/10902642742,node,10902642742,restaurants,تاي رينو,,,,,,,,,,,24.4927471,54.3694685,"{""amenity"": ""restaurant"", ""name"": ""تاي رينو"", ""name:ar"": ""تاي رينو"", ""name:en"": ""Thai Renu""}"
node/1096012687,node,1096012687,restaurants,Il Porto Italian Restaurant & Sushi Bar,,,,,,,+973 2 635 9957,,italian,,24.473801,54.3162985,"{""addr:city"": ""أبو ظبي"", ""addr:city:ar"": ""أبو ظبي"", ""addr:city:en"": ""Abu Dhabi"", ""addr:city:ur"": ""ابوظہبی"", ""addr:country"": ""AE"", ""amenity"": ""restaurant"", ""cuisine"": ""italian"", ""name"": ""Il Porto Italian Restaurant & Sushi Bar"", ""name:en"": ""Il Porto Italian Restaurant & Sushi Bar"", ""phone"": ""+973 2 635 9957""}"
node/10981642582,node,10981642582,restaurants,مشاوي و شاورما ريفانا الشام,,,,,,https://grills-and-shawarma-rivana-alsham.com/,+971 0503 884885; +971 ​0255 63303,,,,24.4010793,54.5782095,"{""amenity"": ""restaurant"", ""contact:facebook"": ""https://www.facebook.com/Rivanaalsham/"", ""contact:instagram"": ""https://www.instagram.com/rivanaalsham/"", ""name"": ""مشاوي و شاورما ريفانا الشام"", ""name:ar"": ""مشاوي و شاورما ريفانا الشام"", ""name:en"": ""Grills And Shawarma Rivana Al Sham"", ""phone"": ""+971 0503 884885; +971 ​0255 63303"", ""website"": ""https://grills-and-shawarma-rivana-alsham.com/""}"
node/10998457167,node,10998457167,bakeries,Cinnabon,,,,,,,,,,,24.4293992,54.6439961,"{""level"": ""1"", ""name"": ""Cinnabon"", ""shop"": ""bakery"", ""survey:date"": ""2023-07-12""}"
node/11012436551,node,11012436551,coffee_shops,L'eto,,,,,"Fr-Sa 09:00-00:00; Mo-Th,Su 09:00-23:00",,,,,,24.5009612,54.3902582,"{""air_conditioning"": ""yes"", ""amenity"": ""cafe"", ""contact:email"": ""ae@letocaffe.com"", ""contact:phone"": ""+971 2 672 4320"", ""contact:website"": ""https://letocaffe.com"", ""diet:vegetarian"": ""yes"", ""indoor_seating"": ""yes"", ""name"": ""L'eto"", ""opening_hours"": ""Fr-Sa 09:00-00:00; Mo-Th,Su 09:00-23:00"", ""outdoor_seating"": ""no"", ""smoking"": ""no""}"
node/11012436558,node,11012436558,coffee_shops,Forever Rose,,,,,"Fr-Sa 09:00-00:00; Mo-Th,Su 09:00-22:00",,,Forever Rose Cafe,,,24.488764,54.609154,"{""air_conditioning"": ""yes"", ""amenity"": ""cafe"", ""contact:email"": ""asim@foreverrose.london"", ""contact:instagram"": ""https://instagram.com/foreverrosecafe"", ""contact:phone"": ""+971 2 886 4587;+971 50 112 1094"", ""contact:website"": ""https://foreverrosecafe.com"", ""diet:halal"": ""yes"", ""diet:vegan"": ""yes"", ""diet:vegetarian"": ""yes"", ""indoor_seating"": ""yes"", ""name"": ""Forever Rose"", ""opening_hours"": ""Fr-Sa 09:00-00:00; Mo-Th,Su 09:00-22:00"", ""operator"": ""Forever Rose Cafe"", ""outdoor_seating"": ""no"", ""payment:credit_cards"": ""yes"", ""payment:debit_cards"": ""yes"", ""smoking"": ""no"", ""toilets"": ""no"", ""wheelchair"": ""limited""}"
node/11012436562,node,11012436562,fast_food,Booba,,,,,"Fr-Sa 10:00-24:00; Mo-Th,Su 10:00-22:00",,,,juice,,24.4896285,54.6082333,"{""air_conditioning"": ""yes"", ""amenity"": ""fast_food"", ""contact:email"": ""feedback@booba.ae"", ""contact:instagram"": ""https://www.instagram.com/boobame"", ""contact:phone"": ""+971 2 584 9474"", ""contact:website"": ""https://booba.ae/"", ""cuisine"": ""juice"", ""diet:halal"": ""yes"", ""diet:vegan"": ""yes"", ""diet:vegetarian"": ""yes"", ""indoor_seating"": ""yes"", ""name"": ""Booba"", ""opening_hours"": ""Fr-Sa 10:00-24:00; Mo-Th,Su 10:00-22:00"", ""outdoor_seating"": ""no"", ""payment:credit_cards"": ""yes"", ""payment:debit_cards"": ""yes"", ""smoking"": ""no"", ""toilets"": ""no"", ""wheelchair"": ""limited""}"
node/11012454832,node,11012454832,fast_food,Grill House,,,,,Mo-Su 04:00-02:00,,,Grill House Restaurant,,,24.2881955,54.6400389,"{""amenity"": ""fast_food"", ""contact:email"": ""houseoftea1992@gmail.com"", ""contact:phone"": ""+971 2 583 3585;+971 56 508 3994"", ""contact:website"": ""https://houseoftea.ae"", ""name"": ""Grill House"", ""opening_hours"": ""Mo-Su 04:00-02:00"", ""operator"": ""Grill House Restaurant""}"
node/11025420493,node,11025420493,parking,,,,,,,,,,,,24.4926845,54.3658823,"{""amenity"": ""parking"", ""parking"": ""underground""}"
node/11042007712,node,11042007712,restaurants,Zali,,,شارع سنان بن خادم المهيري,البطين,,,+971507976951,,lebanese,,24.4537778,54.3381294,"{""addr:city"": ""أبوظبي"", ""addr:city:en"": ""Abu Dhabi"", ""addr:country"": ""AE"", ""addr:district"": ""البطين"", ""addr:district:en"": ""Al Bateen"", ""addr:housenumber"": ""105"", ""addr:postcode"": ""20011"", ""addr:street"": ""شارع سنان بن خادم المهيري"", ""addr:street:en"": ""Sinan Bin Khadim Al Muhairi Street"", ""addr:subdistrict"": ""غرب 35"", ""addr:subdistrict:en"": ""W35"", ""amenity"": ""restaurant"", ""cuisine"": ""lebanese"", ""name"": ""Zali"", ""phone"": ""+971507976951""}"
node/11061831610,node,11061831610,restaurants,Yala Kombucha Bar,,,,,,,,,,,24.5285755,54.3656405,"{""amenity"": ""restaurant"", ""name"": ""Yala Kombucha Bar"", ""wheelchair"": ""no""}"
node/11061831611,node,11061831611,tourist_landmarks,Souq Al Mina,,,,,,,,Aldar,,,24.5280349,54.3648859,"{""name"": ""Souq Al Mina"", ""operator"": ""Aldar"", ""toilets"": ""yes"", ""toilets:access"": ""yes"", ""tourism"": ""attraction""}"
node/11066952783,node,11066952783,restaurants,Blu Sky Lounge & Bar,,,Al Meena Street,,Mo-Fr 15:00-03:00; Sat-Sun 12:00-03:00,https://www.southernsun.com/southern-sun-abu-dhabi/dining/blu-sky-lounge-and-bar?utm_source=openstreetmaps&utm_medium=businesslisting&utm_campaign=rstrnt_blu-sky-lounge-and-bar,+971 2 818 4888,,,,24.5004529,54.3713119,"{""addr:street"": ""Al Meena Street"", ""amenity"": ""restaurant"", ""name"": ""Blu Sky Lounge & Bar"", ""opening_hours"": ""Mo-Fr 15:00-03:00; Sat-Sun 12:00-03:00"", ""phone"": ""+971 2 818 4888"", ""website"": ""https://www.southernsun.com/southern-sun-abu-dhabi/dining/blu-sky-lounge-and-bar?utm_source=openstreetmaps&utm_medium=businesslisting&utm_campaign=rstrnt_blu-sky-lounge-and-bar""}"
node/11135117824,node,11135117824,bus_stops,,,,,,,,,,,,24.4935549,54.383334,"{""bus"": ""yes"", ""public_transport"": ""stop_position""}"
node/11135117829,node,11135117829,bus_stops,,,,,,,,,,,,24.4979482,54.3746846,"{""bus"": ""yes"", ""public_transport"": ""stop_position""}"
node/11135117830,node,11135117830,bus_stops,,,,,,,,,,,,24.4954543,54.3738137,"{""bus"": ""yes"", ""public_transport"": ""stop_position""}"
node/11135117832,node,11135117832,bus_stops,,,,,,,,,,,,24.4925054,54.3762432,"{""bus"": ""yes"", ""public_transport"": ""stop_position""}"
node/11135117834,node,11135117834,bus_stops,,,,,,,,,,,,24.4903609,54.3780625,"{""bus"": ""yes"", ""public_transport"": ""stop_position""}"
node/11135117835,node,11135117835,bus_stops,,,,,,,,,,,,24.4854478,54.3824317,"{""bus"": ""yes"", ""public_transport"": ""stop_position""}"
node/11135117836,node,11135117836,bus_stops,,,,,,,,,,,,24.4827347,54.3846484,"{""bus"": ""yes"", ""public_transport"": ""stop_position""}"
node/11135117849,node,11135117849,bus_stops,,,,,,,,,,,,24.4000191,54.4969047,"{""bus"": ""yes"", ""public_transport"": ""stop_position""}"
node/11135117855,node,11135117855,bus_stops,,,,,,,,,,,,24.4262526,54.6457818,"{""bus"": ""yes"", ""public_transport"": ""stop_position""}"
node/11135159520,node,11135159520,bus_stops,Al Zahiyah / Ghurair Al Ojaan Mosque,,,,,,,,,,,24.4934862,54.3833678,"{""bus"": ""yes"", ""highway"": ""bus_stop"", ""name"": ""Al Zahiyah / Ghurair Al Ojaan Mosque"", ""public_transport"": ""platform"", ""ref"": ""1010A, 1010B""}"
node/11135159521,node,11135159521,bus_stops,,,,,,,,,,,,24.426567,54.645201,"{""bus"": ""yes"", ""public_transport"": ""stop_position""}"
node/11135159522,node,11135159522,bus_stops,Abu Dhabi Int'l Airport Terminal 1+3,,,,,,,,,,,24.4264869,54.6451777,"{""bus"": ""yes"", ""highway"": ""bus_stop"", ""name"": ""Abu Dhabi Int'l Airport Terminal 1+3"", ""public_transport"": ""platform"", ""ref"": ""17210A""}"
node/11135159526,node,11135159526,bus_stops,,,,,,,,,,,,24.4008018,54.4969758,"{""bus"": ""yes"", ""public_transport"": ""stop_position""}"
node/11135159543,node,11135159543,bus_stops,,,,,,,,,,,,24.488231,54.3801677,"{""bus"": ""yes"", ""public_transport"": ""stop_position""}"
node/11135159545,node,11135159545,bus_stops,,,,,,,,,,,,24.4903972,54.3783467,"{""bus"": ""yes"", ""public_transport"": ""stop_position""}"
node/11135159546,node,11135159546,bus_stops,,,,,,,,,,,,24.4929859,54.3761682,"{""bus"": ""yes"", ""public_transport"": ""stop_position""}"
node/11135159547,node,11135159547,bus_stops,,,,,,,,,,,,24.4950581,54.37446,"{""bus"": ""yes"", ""public_transport"": ""stop_position""}"
node/11135159548,node,11135159548,bus_stops,,,,,,,,,,,,24.4980498,54.3751394,"{""bus"": ""yes"", ""public_transport"": ""stop_position""}"
node/11135159549,node,11135159549,bus_stops,,,,,,,,,,,,24.4988618,54.3781007,"{""bus"": ""yes"", ""public_transport"": ""stop_position""}"
node/11135159550,node,11135159550,bus_stops,Al Zahiyah St / Zayed The First St,,,,,,,,Integrated Transport Centre,,,24.4988015,54.3780172,"{""bus"": ""yes"", ""highway"": ""bus_stop"", ""name"": ""Al Zahiyah St / Zayed The First St"", ""network"": ""ITC"", ""operator"": ""Integrated Transport Centre"", ""public_transport"": ""platform"", ""ref"": ""01005B"", ""shelter"": ""yes""}"
node/11135159552,node,11135159552,bus_stops,,,,,,,,,,,,24.4964218,54.3801571,"{""bus"": ""yes"", ""public_transport"": ""stop_position""}"
node/11135199392,node,11135199392,bus_stops,,,,,,,,,,,,24.4966134,54.3815377,"{""bus"": ""yes"", ""public_transport"": ""stop_position""}"
node/11135199393,node,11135199393,bus_stops,Al Maiyani St / Zayed The First St,,,,,,,,,,,24.4986736,54.3801063,"{""bus"": ""yes"", ""highway"": ""bus_stop"", ""name"": ""Al Maiyani St / Zayed The First St"", ""public_transport"": ""platform"", ""ref"": ""1017A""}"
node/11135199395,node,11135199395,bus_stops,,,,,,,,,,,,24.4948812,54.3703905,"{""bus"": ""yes"", ""public_transport"": ""stop_position""}"
node/11135199400,node,11135199400,bus_stops,,,,,,,,,,,,24.492355,54.3667999,"{""bus"": ""yes"", ""public_transport"": ""stop_position""}"
node/11135199401,node,11135199401,bus_stops,,,,,,,,,,,,24.4853719,54.3658902,"{""bus"": ""yes"", ""public_transport"": ""stop_position""}"
node/11135207210,node,11135207210,bus_stops,,,,,,,,,,,,24.4767392,54.3722026,"{""bus"": ""yes"", ""public_transport"": ""stop_position""}"
node/11135207211,node,11135207211,bus_stops,,,,,,,,,,,,24.4699801,54.376997,"{""bus"": ""yes"", ""public_transport"": ""stop_position"", ""ref"": ""420C""}"
node/11135207213,node,11135207213,bus_stops,,,,,,,,,,,,24.4631941,54.3851201,"{""bus"": ""yes"", ""public_transport"": ""stop_position""}"
node/11135207218,node,11135207218,bus_stops,,,,,,,,,,,,24.4540914,54.3937486,"{""bus"": ""yes"", ""public_transport"": ""stop_position""}"
node/11135225542,node,11135225542,bus_stops,,,,,,,,,,,,24.3643341,54.5591711,"{""bus"": ""yes"", ""public_transport"": ""stop_position""}"
node/11135225543,node,11135225543,bus_stops,ADNOC / Al Shaghameem St,,,,,,,,,,,24.3642777,54.5591154,"{""bus"": ""yes"", ""highway"": ""bus_stop"", ""name"": ""ADNOC / Al Shaghameem St"", ""public_transport"": ""platform"", ""ref"": ""12290B""}"
node/1115070511,node,1115070511,supermarkets,Abu Dhabi Cooperative Muroor,,,,,,,,,,,24.4335978,54.4395607,"{""addr:city"": ""أبو ظبي"", ""addr:city:ar"": ""أبو ظبي"", ""addr:city:en"": ""Abu Dhabi"", ""addr:city:ur"": ""ابوظہبی"", ""addr:country"": ""AE"", ""addr:housename"": ""Muroor Road"", ""building"": ""yes"", ""fixme"": ""name, name:en mismatch."", ""name"": ""Abu Dhabi Cooperative Muroor"", ""name:ar"": ""جمعية أبوظبي - المرور"", ""name:en"": ""Abu Dhabi Cooperative - Muroor"", ""shop"": ""supermarket""}"
node/1115072660,node,1115072660,restaurants,Al Fawar,,,,,,,,,,,24.4336768,54.4378142,"{""amenity"": ""restaurant"", ""name"": ""Al Fawar"", ""name:en"": ""Al Fawar Al Lebanon""}"
node/11186128737,node,11186128737,restaurants,Spicy Zaatar,,,,,Mo-Su 10:00-24:00,,,,lebanese;middle_eastern;coffee_shop,,24.4886073,54.3610157,"{""air_conditioning"": ""yes"", ""amenity"": ""restaurant"", ""bar"": ""no"", ""brewery"": ""no"", ""check_date"": ""2025-05-10"", ""check_date:opening_hours"": ""2025-05-10"", ""cuisine"": ""lebanese;middle_eastern;coffee_shop"", ""delivery"": ""yes"", ""diet:vegetarian"": ""yes"", ""name"": ""Spicy Zaatar"", ""opening_hours"": ""Mo-Su 10:00-24:00"", ""outdoor_seating"": ""pavement"", ""payment:cash"": ""yes"", ""payment:credit_cards"": ""yes"", ""payment:debit_cards"": ""yes"", ""takeaway"": ""yes"", ""toilets"": ""yes"", ""wheelchair"": ""limited""}"
node/11186786906,node,11186786906,parking,,,,,,,,,,,,24.4736222,54.3220237,"{""amenity"": ""parking""}"
node/11193435936,node,11193435936,restaurants,مطعم قصر الوليمه للاكلات اليمنيه والخليجيه,,,شارع الياس السَّافلِي,الشامخة,Mo-Su 07:00-00:00,https://qasr-alwalima.com/,025868999,,arab;yemeni; middle eastern,,24.367476,54.7062785,"{""addr:city"": ""أبوظبي"", ""addr:city:en"": ""Abu Dhabi"", ""addr:country"": ""AE"", ""addr:district"": ""الشامخة"", ""addr:district:en"": ""Al Shamkhah"", ""addr:postcode"": ""23843"", ""addr:street"": ""شارع الياس السَّافلِي"", ""addr:street:en"": ""Al Yas As Safli Street"", ""addr:subdistrict"": ""الشامخة 21"", ""addr:subdistrict:en"": ""SH21"", ""addr:unit"": ""Villa 16, Near Hajir Ladies Saloon"", ""amenity"": ""restaurant"", ""cuisine"": ""arab;yemeni; middle eastern"", ""delivery"": ""yes"", ""name"": ""مطعم قصر الوليمه للاكلات اليمنيه والخليجيه"", ""name:en"": ""Qasir Al Walima Restaurant"", ""opening_hours"": ""Mo-Su 07:00-00:00"", ""phone"": ""025868999"", ""takeaway"": ""yes"", ""website"": ""https://qasr-alwalima.com/""}"
node/11246806452,node,11246806452,fast_food,Red Mill Cafeteria,,,,,Mo-Tu 09:00-01:00; We 09:00-01:30; Th-Su 09:00-01:00,,,,,,24.4917863,54.363998,"{""amenity"": ""fast_food"", ""fast_food"": ""cafeteria"", ""name"": ""Red Mill Cafeteria"", ""opening_hours"": ""Mo-Tu 09:00-01:00; We 09:00-01:30; Th-Su 09:00-01:00""}"
node/11246806579,node,11246806579,mosques,Hanzalah Bin Abi Amer,,,,,,,,,,,24.4921602,54.3620976,"{""amenity"": ""place_of_worship"", ""name"": ""Hanzalah Bin Abi Amer"", ""religion"": ""muslim""}"
node/11246875891,node,11246875891,department_stores,K.M. Trading Dept. Sore,,,,,,,,,,,24.4974348,54.3717315,"{""name"": ""K.M. Trading Dept. Sore"", ""shop"": ""department_store""}"
node/11262401570,node,11262401570,pharmacies,,,,,,,,,,,,24.457721,54.6731124,"{""amenity"": ""pharmacy"", ""healthcare"": ""pharmacy"", ""name:en"": ""LIFE""}"
node/11275024034,node,11275024034,restaurants,Culann Aries,,,,,,,+971 2 632 9252,,irish,,24.4804934,54.6188006,"{""amenity"": ""restaurant"", ""cuisine"": ""irish"", ""name"": ""Culann Aries"", ""phone"": ""+971 2 632 9252""}"
node/11280901836,node,11280901836,convenience,,,,,,,,+971 25516700,,,,24.446516,54.6000364,"{""check_date"": ""2023-10-22"", ""name:en"": ""baqala"", ""phone"": ""+971 25516700"", ""shop"": ""convenience""}"
node/11280901837,node,11280901837,coffee_shops,الدچّــة,,,,,,,,,coffee_shop,,24.4463247,54.599688,"{""amenity"": ""cafe"", ""check_date"": ""2023-10-22"", ""cuisine"": ""coffee_shop"", ""name"": ""الدچّــة"", ""name:ar"": ""الدچّــة"", ""name:en"": ""Al Decha Cafe"", ""outdoor_seating"": ""yes""}"
node/11284576977,node,11284576977,tourist_landmarks,,,,,,,,,,,,24.5454406,54.4855063,"{""tourism"": ""viewpoint""}"
node/11284576978,node,11284576978,coffee_shops,Crane Specialty Cafe,,,,,Mo-Su 08:00-20:00,http://cranecafe.ae,,,juice,,24.5451536,54.4856726,"{""amenity"": ""cafe"", ""cuisine"": ""juice"", ""name"": ""Crane Specialty Cafe"", ""opening_hours"": ""Mo-Su 08:00-20:00"", ""outdoor_seating"": ""yes"", ""website"": ""http://cranecafe.ae""}"
node/11298089069,node,11298089069,tourist_landmarks,,,,,,,,,,,,24.4115017,54.4728415,"{""name:en"": ""Best view for mosque (good for photo)"", ""tourism"": ""viewpoint""}"
node/11301224723,node,11301224723,coffee_shops,Dice Board Game Café,,,,,,,,,,,24.4671801,54.3389653,"{""amenity"": ""cafe"", ""cafe"": ""board_game"", ""contact:instagram"": ""dice.abudhabi"", ""name"": ""Dice Board Game Café""}"
node/11312103780,node,11312103780,fast_food,Haris Marquqa Traiditional Food,,,,,,,,,regional,,24.4574917,54.673183,"{""amenity"": ""fast_food"", ""check_date"": ""2023-11-04"", ""cuisine"": ""regional"", ""name"": ""Haris Marquqa Traiditional Food"", ""name:en"": ""Haris Marquqa Traiditional Food""}"
node/11312103781,node,11312103781,fast_food,Subway,Subway,Q244457,,,,,,,sandwich,,24.4576028,54.6732355,"{""amenity"": ""fast_food"", ""brand"": ""Subway"", ""brand:wikidata"": ""Q244457"", ""check_date"": ""2023-11-04"", ""cuisine"": ""sandwich"", ""name"": ""Subway"", ""name:en"": ""Subway"", ""takeaway"": ""yes""}"
node/11312103784,node,11312103784,restaurants,Baithak,,,,,,,,,indian,,24.4570313,54.6739378,"{""amenity"": ""restaurant"", ""check_date"": ""2023-11-04"", ""cuisine"": ""indian"", ""name"": ""Baithak"", ""name:en"": ""Baithak""}"
node/11312103785,node,11312103785,restaurants,Pizza Hut,Pizza Hut,Q191615,,,10:00-25:00,https://uae.pizzahut.me/,,,pizza,,24.4573907,54.6741369,"{""amenity"": ""restaurant"", ""brand"": ""Pizza Hut"", ""brand:wikidata"": ""Q191615"", ""check_date"": ""2023-11-04"", ""cuisine"": ""pizza"", ""name"": ""Pizza Hut"", ""opening_hours"": ""10:00-25:00"", ""website"": ""https://uae.pizzahut.me/""}"
node/11312103786,node,11312103786,fast_food,كرسبي كريم,كرسبي كريم,Q1192805,,,,,,,donut,,24.4574388,54.6740397,"{""amenity"": ""fast_food"", ""brand"": ""كرسبي كريم"", ""brand:ar"": ""كرسبي كريم"", ""brand:en"": ""Krispy Kreme"", ""brand:wikidata"": ""Q1192805"", ""check_date"": ""2023-11-04"", ""cuisine"": ""donut"", ""name"": ""كرسبي كريم"", ""name:ar"": ""كرسبي كريم"", ""name:en"": ""Krispy Kreme"", ""takeaway"": ""yes""}"
node/11312103787,node,11312103787,fast_food,دجاج كنتاكي,دجاج كنتاكي,Q524757,,,10:30-27:00,https://uae.kfc.me/,,,chicken,,24.4575206,54.6740858,"{""amenity"": ""fast_food"", ""brand"": ""دجاج كنتاكي"", ""brand:ar"": ""دجاج كنتاكي"", ""brand:en"": ""KFC"", ""brand:wikidata"": ""Q524757"", ""check_date"": ""2023-11-04"", ""cuisine"": ""chicken"", ""name"": ""دجاج كنتاكي"", ""name:ar"": ""دجاج كنتاكي"", ""name:en"": ""KFC"", ""opening_hours"": ""10:30-27:00"", ""takeaway"": ""yes"", ""website"": ""https://uae.kfc.me/""}"
node/11312103788,node,11312103788,coffee_shops,ستاربكس,ستاربكس,Q37158,,,Mo-Th 06:30-24:00; Fr 06:30-00:30; Sa 07:30-00:30; Su 07:30-24:00,https://www.starbucks.ae/,,,coffee_shop,,24.4574885,54.6739442,"{""amenity"": ""cafe"", ""brand"": ""ستاربكس"", ""brand:ar"": ""ستاربكس"", ""brand:en"": ""Starbucks"", ""brand:wikidata"": ""Q37158"", ""check_date"": ""2023-11-04"", ""cuisine"": ""coffee_shop"", ""name"": ""ستاربكس"", ""name:ar"": ""ستاربكس"", ""name:en"": ""Starbucks"", ""official_name"": ""ستاربكس كافية"", ""official_name:ar"": ""ستاربكس كافية"", ""official_name:en"": ""Starbucks Coffee"", ""opening_hours"": ""Mo-Th 06:30-24:00; Fr 06:30-00:30; Sa 07:30-00:30; Su 07:30-24:00"", ""takeaway"": ""yes"", ""website"": ""https://www.starbucks.ae/""}"
node/11312103790,node,11312103790,restaurants,Chhappan Bhog,,,,,10:00-23:00,https://www.zomato.com/abudhabi/chhappan-bhog-al-reef,,,indian,,24.4570602,54.6740339,"{""amenity"": ""restaurant"", ""check_date"": ""2023-11-04"", ""cuisine"": ""indian"", ""diet:vegetarian"": ""yes"", ""name"": ""Chhappan Bhog"", ""name:en"": ""Chhappan Bhog"", ""opening_hours"": ""10:00-23:00"", ""website"": ""https://www.zomato.com/abudhabi/chhappan-bhog-al-reef""}"
node/11312103792,node,11312103792,fast_food,Rashid Ali Hassan,,,,,7:30-24:00,https://www.rashidalicafeteria.ae/,,,sandwich;indian;juice,,24.4572215,54.6740461,"{""amenity"": ""fast_food"", ""check_date"": ""2024-03-09"", ""cuisine"": ""sandwich;indian;juice"", ""fast_food"": ""cafeteria"", ""name"": ""Rashid Ali Hassan"", ""name:en"": ""Rashid Ali Hassan"", ""opening_hours"": ""7:30-24:00"", ""website"": ""https://www.rashidalicafeteria.ae/""}"
node/11312103793,node,11312103793,fast_food,Crispy Meal,,,,,10:00-23:00,https://www.zomato.com/abudhabi/crispy-meal-restaurant-al-reef,,,burger,,24.4572963,54.6740167,"{""amenity"": ""fast_food"", ""check_date"": ""2023-11-04"", ""cuisine"": ""burger"", ""name"": ""Crispy Meal"", ""name:en"": ""Crispy Meal"", ""opening_hours"": ""10:00-23:00"", ""website"": ""https://www.zomato.com/abudhabi/crispy-meal-restaurant-al-reef""}"
node/11328985417,node,11328985417,restaurants,Taste of Kerala,,,Al Falah Street,,,,,,,,24.4804886,54.3727705,"{""addr:street"": ""Al Falah Street"", ""amenity"": ""restaurant"", ""name"": ""Taste of Kerala""}"
node/11328990288,node,11328990288,restaurants,Operation Falafel,,,Sultan Bin Zayed The First Street,,Mo-Su 08:00-01:30,https://operationfalafel.com,,,arab;lebanese,,24.4781097,54.3715718,"{""addr:street"": ""Sultan Bin Zayed The First Street"", ""amenity"": ""restaurant"", ""cuisine"": ""arab;lebanese"", ""internet_access"": ""wlan"", ""internet_access:fee"": ""no"", ""name"": ""Operation Falafel"", ""opening_hours"": ""Mo-Su 08:00-01:30"", ""outdoor_seating"": ""no"", ""payment:cash"": ""yes"", ""payment:credit_cards"": ""yes"", ""seats"": ""child"", ""website"": ""https://operationfalafel.com""}"
node/11328999242,node,11328999242,restaurants,Bikanervala - Indian Sweets & Vegetarian Restaurant,,,,,Mo-Su 07:00-23:00,https://bikanervala.ae/,,,indian,,24.4786167,54.3633166,"{""amenity"": ""restaurant"", ""cuisine"": ""indian"", ""diet:vegetarian"": ""yes"", ""name"": ""Bikanervala - Indian Sweets & Vegetarian Restaurant"", ""opening_hours"": ""Mo-Su 07:00-23:00"", ""website"": ""https://bikanervala.ae/""}"
node/11333126002,node,11333126002,coffee_shops,La Brioche,,,Khalifa Bin Zayed The First Street,,Mo-Su 08:00-23:00,,,,french,,24.4906217,54.3587788,"{""addr:street"": ""Khalifa Bin Zayed The First Street"", ""amenity"": ""cafe"", ""contact:email"": ""info@labriocheuae.com"", ""contact:facebook"": ""https://www.facebook.com/labriocheuaeofficial"", ""contact:instagram"": ""https://www.instagram.com/labriocheuae"", ""contact:phone"": ""+971 2 6271932"", ""contact:twitter"": ""https://twitter.com/labriocheuae"", ""contact:website"": ""https://www.labriocheuae.com"", ""contact:youtube"": ""https://www.youtube.com/channel/UC0vUblttgcQFlTQzpuvkEWQ"", ""cuisine"": ""french"", ""name"": ""La Brioche"", ""name:en"": ""La Brioche"", ""opening_hours"": ""Mo-Su 08:00-23:00""}"
node/11333126212,node,11333126212,supermarkets,Organic Foods & Café,,,Corniche Street,,Mo-Su 09:00-22:00,https://www.organicfoodsandcafe.com/,+971 2 6654244,,,,24.4642595,54.3282,"{""addr:street"": ""Corniche Street"", ""building"": ""Nation Tower"", ""level"": ""2"", ""name"": ""Organic Foods & Café"", ""opening_hours"": ""Mo-Su 09:00-22:00"", ""payment:cash"": ""yes"", ""payment:credit_cards"": ""yes"", ""phone"": ""+971 2 6654244"", ""product"": ""organic"", ""shop"": ""supermarket"", ""website"": ""https://www.organicfoodsandcafe.com/""}"
node/11333221699,node,11333221699,coffee_shops,Town Cube,,,,,,,,,,,24.4178793,54.4423417,"{""amenity"": ""cafe"", ""name"": ""Town Cube"", ""outdoor_seating"": ""yes""}"
node/11333245984,node,11333245984,supermarkets,LuLu Xpress Freshmarket,,,,,Mo-Su 08:00-00:00,https://www.luluhypermarket.com/en-ae/,,,,,24.4175244,54.4422664,"{""name"": ""LuLu Xpress Freshmarket"", ""opening_hours"": ""Mo-Su 08:00-00:00"", ""shop"": ""supermarket"", ""website"": ""https://www.luluhypermarket.com/en-ae/""}"
node/11338855457,node,11338855457,bus_stops,Terminal A,,,,,,,,,,,24.4538079,54.6403169,"{""bus"": ""yes"", ""description"": ""Bus N2 to Abu Dhabi city"", ""highway"": ""bus_stop"", ""level"": ""0"", ""name"": ""Terminal A"", ""payment:cash"": ""yes"", ""payment:credit_cards"": ""no"", ""public_transport"": ""platform""}"
node/11338872793,node,11338872793,bus_stops,Terminal A,,,,,,,,,,,24.4538159,54.6406357,"{""bus"": ""yes"", ""description"": ""Bus line A10"", ""highway"": ""bus_stop"", ""level"": ""1"", ""name"": ""Terminal A"", ""public_transport"": ""platform""}"
node/11338892351,node,11338892351,bus_stops,Airport Express Bus,,,,,,,,,,,24.4538151,54.6404722,"{""bus"": ""yes"", ""description"": ""Commutes hourly between Abu Dhabi and Dubai for 35 AED, payable on the bus"", ""highway"": ""bus_stop"", ""level"": ""0"", ""name"": ""Airport Express Bus"", ""payment:cash"": ""yes"", ""payment:credit_cards"": ""yes"", ""public_transport"": ""platform""}"
node/11338930784,node,11338930784,bus_stops,Airport Express Bus,,,,,,,,,,,24.4267472,54.6451106,"{""description"": ""Commutes hourly between Abu Dhabi and Dubai for 35 AED, payable on the bus"", ""highway"": ""bus_stop"", ""name"": ""Airport Express Bus"", ""payment:cash"": ""yes"", ""payment:credit_cards"": ""yes""}"
node/11339555069,node,11339555069,coffee_shops,,,,,,,,,,,,24.4543403,54.3568044,"{""amenity"": ""cafe"", ""name:en"": ""Parallel Cafe""}"
node/11339558069,node,11339558069,coffee_shops,,,,,,,,,,,,24.4241733,54.4065464,"{""amenity"": ""cafe"", ""name:en"": ""Otaku""}"
node/11379876130,node,11379876130,restaurants,Mado,,,,,,,,,turkish,,24.4040463,54.4935041,"{""amenity"": ""restaurant"", ""check_date"": ""2023-11-26"", ""cuisine"": ""turkish"", ""name"": ""Mado""}"
node/11406041785,node,11406041785,supermarkets,Earth Supermarket,,,342 Al Qa-Id St - Mohamed Bin Zayed City - Z12 - Abu Dhabi,,Mo-Su 07:00-13:00,https://earthretail.ae,025464158,,,,24.3326851,54.5669863,"{""addr:street"": ""342 Al Qa-Id St - Mohamed Bin Zayed City - Z12 - Abu Dhabi"", ""name"": ""Earth Supermarket"", ""opening_hours"": ""Mo-Su 07:00-13:00"", ""phone"": ""025464158"", ""shop"": ""supermarket"", ""website"": ""https://earthretail.ae""}"
node/11438574379,node,11438574379,coffee_shops,% Arabica,% Arabica,Q107639197,,,"Fr-Sa 10:00-00:00; Mo-Th,Su 07:30-22:30",,,,coffee_shop,,24.5006561,54.3902475,"{""air_conditioning"": ""yes"", ""amenity"": ""cafe"", ""brand"": ""% Arabica"", ""brand:wikidata"": ""Q107639197"", ""contact:email"": ""hello@arabicacoffee.ae"", ""contact:phone"": ""+971 2 886 8828"", ""contact:website"": ""https://www.arabicacoffee.ae"", ""cuisine"": ""coffee_shop"", ""diet:vegan"": ""only"", ""diet:vegetarian"": ""only"", ""indoor_seating"": ""yes"", ""name"": ""% Arabica"", ""name:en"": ""% Arabica"", ""opening_hours"": ""Fr-Sa 10:00-00:00; Mo-Th,Su 07:30-22:30"", ""outdoor_seating"": ""no"", ""smoking"": ""no"", ""toilets"": ""no"", ""wheelchair"": ""limited""}"
node/11438574380,node,11438574380,coffee_shops,% Arabica,% Arabica,Q107639197,,,Mo-Su 08:00-00:00,,,,coffee_shop,,24.4765202,54.3216205,"{""amenity"": ""cafe"", ""brand"": ""% Arabica"", ""brand:wikidata"": ""Q107639197"", ""contact:email"": ""hello@arabicacoffee.ae"", ""contact:phone"": ""+971 2 546 0015"", ""contact:website"": ""https://www.arabicacoffee.ae"", ""cuisine"": ""coffee_shop"", ""diet:vegetarian"": ""yes"", ""name"": ""% Arabica"", ""name:en"": ""% Arabica"", ""opening_hours"": ""Mo-Su 08:00-00:00"", ""takeaway"": ""yes""}"
node/11438574383,node,11438574383,coffee_shops,% Arabica,% Arabica,Q107639197,,,Mo-Su 07:00-22:30,,,,coffee_shop,,24.4350087,54.4558677,"{""amenity"": ""cafe"", ""brand"": ""% Arabica"", ""brand:wikidata"": ""Q107639197"", ""contact:email"": ""hello@arabicacoffee.ae"", ""contact:phone"": ""+971 2 622 8992"", ""contact:website"": ""https://www.arabicacoffee.ae"", ""cuisine"": ""coffee_shop"", ""name"": ""% Arabica"", ""name:en"": ""% Arabica"", ""opening_hours"": ""Mo-Su 07:00-22:30"", ""takeaway"": ""yes""}"
node/11438574385,node,11438574385,coffee_shops,% Arabica,% Arabica,Q107639197,,,"Fr-Sa 08:30-12:30; Mo-Th,Su 08:30-23:30",,,,coffee_shop,,24.4886888,54.6086089,"{""air_conditioning"": ""yes"", ""amenity"": ""cafe"", ""brand"": ""% Arabica"", ""brand:wikidata"": ""Q107639197"", ""contact:email"": ""hello@arabicacoffee.ae"", ""contact:phone"": ""+971 2 886 5060"", ""contact:website"": ""https://www.arabicacoffee.ae"", ""cuisine"": ""coffee_shop"", ""diet:halal"": ""yes"", ""diet:vegan"": ""yes"", ""diet:vegetarian"": ""yes"", ""indoor_seating"": ""yes"", ""name"": ""% Arabica"", ""name:en"": ""% Arabica"", ""opening_hours"": ""Fr-Sa 08:30-12:30; Mo-Th,Su 08:30-23:30"", ""outdoor_seating"": ""no"", ""smoking"": ""no"", ""toilets"": ""no"", ""wheelchair"": ""limited""}"
node/11455850469,node,11455850469,restaurants,,,,,,,,,,,,24.4716343,54.3480246,"{""amenity"": ""restaurant"", ""name:en"": ""Kitfo""}"
node/11493970371,node,11493970371,convenience,بقالة,,,,,,,,,,,24.4998825,54.3725471,"{""addr:housenumber"": ""9"", ""name"": ""بقالة"", ""name:en"": ""baqala"", ""shop"": ""convenience""}"
node/11493970372,node,11493970372,convenience,بقالة,,,,,,,,,,,24.4994529,54.372169,"{""name"": ""بقالة"", ""name:en"": ""Baqala"", ""shop"": ""convenience""}"
node/11493970373,node,11493970373,supermarkets,C.M. Supermarket,,,,,,,,,,,24.5008172,54.3759635,"{""name"": ""C.M. Supermarket"", ""name:ar"": ""سي.ام. سوبرماركت"", ""name:en"": ""C.M. Supermarket"", ""shop"": ""supermarket""}"
node/11493977369,node,11493977369,pharmacies,صيدلية الأفضل,,,Ridat At Tiwyan Street,,,,,,,,24.5017968,54.3733822,"{""addr:street"": ""Ridat At Tiwyan Street"", ""amenity"": ""pharmacy"", ""name"": ""صيدلية الأفضل"", ""name:en"": ""Al Afdal Pharmacy""}"
node/11493977372,node,11493977372,coffee_shops,كارولينا كافيه,,,,,,,,,,,24.5015653,54.3755962,"{""amenity"": ""cafe"", ""name"": ""كارولينا كافيه"", ""name:ar"": ""كارولينا كافيه"", ""name:en"": ""Carolina Cafe""}"
node/11493977469,node,11493977469,supermarkets,المدينة سوبرماركت,,,,,Mo-Su 06:30-02:00,,+971563541781,,,,24.5003365,54.3724777,"{""addr:housenumber"": ""1"", ""name"": ""المدينة سوبرماركت"", ""name:en"": ""Al Madina Supermarket"", ""opening_hours"": ""Mo-Su 06:30-02:00"", ""phone"": ""+971563541781"", ""shop"": ""supermarket""}"
node/11493977669,node,11493977669,restaurants,بيست شيكين,,,,,24/7,,025553020;025553010,,,,24.499938,54.3723709,"{""addr:housenumber"": ""9"", ""amenity"": ""restaurant"", ""name"": ""بيست شيكين"", ""name:en"": ""BEST Chicken"", ""opening_hours"": ""24/7"", ""phone"": ""025553020;025553010""}"
node/11493977670,node,11493977670,pharmacies,,,,,,,,,,,,24.5021086,54.3748757,"{""amenity"": ""pharmacy"", ""name:en"": ""Al Zaman Pharmacy""}"
node/11493977769,node,11493977769,restaurants,مطعم مدراس كورنير,,,,,,,,,,,24.4996406,54.3722371,"{""amenity"": ""restaurant"", ""name"": ""مطعم مدراس كورنير"", ""name:en"": ""Madras Restaurant""}"
node/11493977770,node,11493977770,coffee_shops,,,,,,,,,,,,24.4995883,54.3720412,"{""amenity"": ""cafe"", ""name:en"": ""Light Tea Cafeteria""}"
node/11493977870,node,11493977870,restaurants,,,,,,,,,,,,24.4982444,54.3721392,"{""amenity"": ""restaurant"", ""name:en"": ""Halaa Al Sham Restaurant & Cafe""}"
node/11493978069,node,11493978069,convenience,بقالة,,,,,,,,,,,24.4995971,54.3722848,"{""name"": ""بقالة"", ""name:en"": ""Baqala"", ""shop"": ""convenience""}"
node/11493978169,node,11493978169,restaurants,,,,,,,,,,,,24.4990969,54.3757257,"{""amenity"": ""restaurant"", ""name:en"": ""Fat Free Chicken""}"
node/11493978269,node,11493978269,supermarkets,,,,,,,,,,,,24.5017878,54.3759817,"{""name:en"": ""Safa Express Supermarket"", ""shop"": ""supermarket""}"
node/11495365769,node,11495365769,fast_food,,,,,,,,,,,,24.5004376,54.3761086,"{""amenity"": ""fast_food""}"
node/11495731813,node,11495731813,supermarkets,Grandiose Supermarket,,,,,Mo-Su 07:00-24:00,,,,,,24.4029564,54.4972592,"{""name"": ""Grandiose Supermarket"", ""opening_hours"": ""Mo-Su 07:00-24:00"", ""shop"": ""supermarket""}"
node/11497289169,node,11497289169,clothes,Grand Outlet,,,,,,,,,,,24.4947923,54.3695855,"{""name"": ""Grand Outlet"", ""shop"": ""clothes""}"
node/11497289269,node,11497289269,convenience,Baqala,,,,,,,,,,,24.4950257,54.3700941,"{""name"": ""Baqala"", ""shop"": ""convenience""}"
node/11497296569,node,11497296569,restaurants,,,,,,,,,,,,24.5022055,54.3737866,"{""amenity"": ""restaurant"", ""name:en"": ""Meknes Restaurant""}"
node/11505874206,node,11505874206,coffee_shops,La Brioche,,,,,"Mo-We,Sa-Su 10:00-22:00; Th-Fr 10:00-23:30",,,,french,,24.5021107,54.3903387,"{""amenity"": ""cafe"", ""check_date:opening_hours"": ""2025-05-01"", ""contact:email"": ""info@labriocheuae.com"", ""contact:facebook"": ""https://www.facebook.com/labriocheuaeofficial"", ""contact:instagram"": ""https://www.instagram.com/labriocheuae"", ""contact:phone"": ""+971 2 671 2744"", ""contact:twitter"": ""https://twitter.com/labriocheuae"", ""contact:website"": ""https://www.labriocheuae.com"", ""contact:youtube"": ""https://www.youtube.com/channel/UC0vUblttgcQFlTQzpuvkEWQ"", ""cuisine"": ""french"", ""diet:vegetarian"": ""yes"", ""name"": ""La Brioche"", ""name:en"": ""La Brioche"", ""opening_hours"": ""Mo-We,Sa-Su 10:00-22:00; Th-Fr 10:00-23:30""}"
node/11505874208,node,11505874208,coffee_shops,La Brioche,,,,,Mo-Su 09:00-22:00,,,,french,,24.3732021,54.5375867,"{""amenity"": ""cafe"", ""contact:email"": ""info@labriocheuae.com"", ""contact:facebook"": ""https://www.facebook.com/labriocheuaeofficial"", ""contact:instagram"": ""https://www.instagram.com/labriocheuae"", ""contact:phone"": ""+971 2 553 2474"", ""contact:twitter"": ""https://twitter.com/labriocheuae"", ""contact:website"": ""https://www.labriocheuae.com"", ""contact:youtube"": ""https://www.youtube.com/channel/UC0vUblttgcQFlTQzpuvkEWQ"", ""cuisine"": ""french"", ""name"": ""La Brioche"", ""name:en"": ""La Brioche"", ""opening_hours"": ""Mo-Su 09:00-22:00""}"
node/11505874209,node,11505874209,coffee_shops,La Brioche,,,,,Mo-Su 07:30-21:30,,,,french,,24.4811876,54.6196246,"{""amenity"": ""cafe"", ""contact:email"": ""socialmedia@labriocheuae.com"", ""contact:facebook"": ""https://www.facebook.com/labriocheuaeofficial"", ""contact:instagram"": ""https://www.instagram.com/labriocheuae"", ""contact:phone"": ""+971 2 643 9050"", ""contact:twitter"": ""https://twitter.com/labriocheuae"", ""contact:website"": ""https://www.labriocheuae.com"", ""contact:youtube"": ""https://www.youtube.com/channel/UC0vUblttgcQFlTQzpuvkEWQ"", ""cuisine"": ""french"", ""name"": ""La Brioche"", ""name:en"": ""La Brioche"", ""opening_hours"": ""Mo-Su 07:30-21:30""}"
node/11505874214,node,11505874214,coffee_shops,La Brioche,,,,,Mo-Su 09:00-23:00,,,,french,,24.4290013,54.7133947,"{""amenity"": ""cafe"", ""contact:email"": ""info@labriocheuae.com"", ""contact:facebook"": ""https://www.facebook.com/labriocheuaeofficial"", ""contact:instagram"": ""https://www.instagram.com/labriocheuae"", ""contact:phone"": ""+971 2 556 5646"", ""contact:twitter"": ""https://twitter.com/labriocheuae"", ""contact:website"": ""https://www.labriocheuae.com"", ""contact:youtube"": ""https://www.youtube.com/channel/UC0vUblttgcQFlTQzpuvkEWQ"", ""cuisine"": ""french"", ""name"": ""La Brioche"", ""name:en"": ""La Brioche"", ""opening_hours"": ""Mo-Su 09:00-23:00""}"
node/11505874215,node,11505874215,coffee_shops,La Brioche,,,,,Mo-Su 09:00-23:00,,,,french,,24.4950228,54.3840409,"{""amenity"": ""cafe"", ""contact:email"": ""info@labriocheuae.com"", ""contact:facebook"": ""https://www.facebook.com/labriocheuaeofficial"", ""contact:instagram"": ""https://www.instagram.com/labriocheuae"", ""contact:phone"": ""+971 2 671 4966"", ""contact:twitter"": ""https://twitter.com/labriocheuae"", ""contact:website"": ""https://www.labriocheuae.com"", ""contact:youtube"": ""https://www.youtube.com/channel/UC0vUblttgcQFlTQzpuvkEWQ"", ""cuisine"": ""french"", ""name"": ""La Brioche"", ""name:en"": ""La Brioche"", ""opening_hours"": ""Mo-Su 09:00-23:00""}"
node/11505874217,node,11505874217,coffee_shops,La Brioche,,,,,Mo-Su 10:00-22:00,,,,french,,24.3114776,54.6205097,"{""amenity"": ""cafe"", ""contact:email"": ""info@labriocheuae.com"", ""contact:facebook"": ""https://www.facebook.com/labriocheuaeofficial"", ""contact:instagram"": ""https://www.instagram.com/labriocheuae"", ""contact:phone"": ""+971 2 585 9650"", ""contact:twitter"": ""https://twitter.com/labriocheuae"", ""contact:website"": ""https://www.labriocheuae.com"", ""contact:youtube"": ""https://www.youtube.com/channel/UC0vUblttgcQFlTQzpuvkEWQ"", ""cuisine"": ""french"", ""name"": ""La Brioche"", ""name:en"": ""La Brioche"", ""opening_hours"": ""Mo-Su 10:00-22:00""}"
node/11505874222,node,11505874222,coffee_shops,La Brioche,,,,,Mo-Su 08:00-23:30,,,,french,,24.4705416,54.351629,"{""amenity"": ""cafe"", ""contact:email"": ""info@labriocheuae.com"", ""contact:facebook"": ""https://www.facebook.com/labriocheuaeofficial"", ""contact:instagram"": ""https://www.instagram.com/labriocheuae"", ""contact:phone"": ""+971 2 639 8894"", ""contact:twitter"": ""https://twitter.com/labriocheuae"", ""contact:website"": ""https://www.labriocheuae.com"", ""contact:youtube"": ""https://www.youtube.com/channel/UC0vUblttgcQFlTQzpuvkEWQ"", ""cuisine"": ""french"", ""name"": ""La Brioche"", ""name:en"": ""La Brioche"", ""opening_hours"": ""Mo-Su 08:00-23:30""}"
node/11505874223,node,11505874223,coffee_shops,La Brioche,,,,,Mo-Su 06:00-23:00,,,,french,,24.4969755,54.4068772,"{""amenity"": ""cafe"", ""contact:email"": ""info@labriocheuae.com"", ""contact:facebook"": ""https://www.facebook.com/labriocheuaeofficial"", ""contact:instagram"": ""https://www.instagram.com/labriocheuae"", ""contact:phone"": ""+971 2 643 6473"", ""contact:twitter"": ""https://twitter.com/labriocheuae"", ""contact:website"": ""https://www.labriocheuae.com"", ""contact:youtube"": ""https://www.youtube.com/channel/UC0vUblttgcQFlTQzpuvkEWQ"", ""cuisine"": ""french"", ""name"": ""La Brioche"", ""name:en"": ""La Brioche"", ""opening_hours"": ""Mo-Su 06:00-23:00""}"
node/11505874224,node,11505874224,coffee_shops,La Brioche,,,,,Mo-Fr 09:00-22:00; Sa-Su 09:00-23:30,,,,french,,24.4881347,54.608708,"{""air_conditioning"": ""yes"", ""amenity"": ""cafe"", ""contact:email"": ""info@labriocheuae.com"", ""contact:facebook"": ""https://www.facebook.com/labriocheuaeofficial"", ""contact:instagram"": ""https://www.instagram.com/labriocheuae"", ""contact:phone"": ""+971 2 565 0986"", ""contact:twitter"": ""https://twitter.com/labriocheuae"", ""contact:website"": ""https://www.labriocheuae.com"", ""contact:youtube"": ""https://www.youtube.com/channel/UC0vUblttgcQFlTQzpuvkEWQ"", ""cuisine"": ""french"", ""diet:halal"": ""yes"", ""diet:vegan"": ""yes"", ""diet:vegetarian"": ""yes"", ""indoor_seating"": ""yes"", ""name"": ""La Brioche"", ""name:en"": ""La Brioche"", ""opening_hours"": ""Mo-Fr 09:00-22:00; Sa-Su 09:00-23:30"", ""outdoor_seating"": ""no"", ""payment:credit_cards"": ""yes"", ""payment:debit_cards"": ""yes"", ""smoking"": ""no"", ""toilets"": ""no"", ""wheelchair"": ""limited""}"
node/11505874225,node,11505874225,coffee_shops,La Brioche,,,,,Mo-Th 09:00-22:30; Fr-Su 00:00-24:00,,,,french,,24.4768693,54.3201561,"{""amenity"": ""cafe"", ""contact:email"": ""info@labriocheuae.com"", ""contact:facebook"": ""https://www.facebook.com/labriocheuaeofficial"", ""contact:instagram"": ""https://www.instagram.com/labriocheuae"", ""contact:phone"": ""+971 2 681 5531"", ""contact:twitter"": ""https://twitter.com/labriocheuae"", ""contact:website"": ""https://www.labriocheuae.com"", ""contact:youtube"": ""https://www.youtube.com/channel/UC0vUblttgcQFlTQzpuvkEWQ"", ""cuisine"": ""french"", ""name"": ""La Brioche"", ""name:en"": ""La Brioche"", ""opening_hours"": ""Mo-Th 09:00-22:30; Fr-Su 00:00-24:00""}"
node/11513896595,node,11513896595,tourist_landmarks,,,,,,,,,,,,24.4768885,54.3318001,"{""historic"": ""memorial"", ""image"": ""https://photos.app.goo.gl/mm7XtmTwVguYBfMD8"", ""memorial:type"": ""cannon""}"
node/11513896619,node,11513896619,tourist_landmarks,Al Yazra,,,,,,,,,,,24.4770609,54.3316641,"{""historic"": ""yes"", ""image"": ""https://photos.app.goo.gl/cfkmk9qu4vdyEvUW7"", ""man_made"": ""water_well"", ""name"": ""Al Yazra"", ""pump"": ""no""}"
node/11522086206,node,11522086206,supermarkets,Grandiose Supermarket,,,,,,,,,,,24.4907944,54.3855143,"{""name"": ""Grandiose Supermarket"", ""shop"": ""supermarket""}"
node/11522086207,node,11522086207,furniture,Bagno Design @ Sanipex Gallery,,,,,,,,Sanipex Group,,,24.4911755,54.3852239,"{""name"": ""Bagno Design @ Sanipex Gallery"", ""operator"": ""Sanipex Group"", ""shop"": ""furniture""}"
node/11522086209,node,11522086209,bus_stops,,,,,,,,,,,,24.4908615,54.3851311,"{""bus"": ""yes"", ""highway"": ""bus_stop"", ""public_transport"": ""platform""}"
node/11527740297,node,11527740297,bus_stops,,,,,,,,,,,,24.4935393,54.3554607,"{""bus"": ""yes"", ""highway"": ""bus_stop"", ""public_transport"": ""platform""}"
node/11542389169,node,11542389169,restaurants,,,,,,,,,,,,24.4961061,54.3823575,"{""amenity"": ""restaurant"", ""name:en"": ""Denny's""}"
node/11554549332,node,11554549332,restaurants,Central Bowling,,,,,,,,,,,24.4588644,54.6023335,"{""amenity"": ""restaurant"", ""name"": ""Central Bowling""}"
node/11554549333,node,11554549333,restaurants,Lock Stock & Barrel,,,,,,,,,,,24.4589317,54.6025783,"{""amenity"": ""restaurant"", ""name"": ""Lock Stock & Barrel""}"
node/11586710269,node,11586710269,coffee_shops,,,,,,,,,,,,24.4617288,54.306352,"{""amenity"": ""cafe"", ""indoor_seating"": ""yes"", ""outdoor_seating"": ""no""}"
node/11594571869,node,11594571869,restaurants,,,,شارع حميد الحصم الرميثي,,,,,,,,24.4933199,54.3696318,"{""addr:street"": ""شارع حميد الحصم الرميثي"", ""amenity"": ""restaurant"", ""name:en"": ""San Thai Diner""}"
node/1161048020,node,1161048020,pharmacies,BinSina Pharmacy,,,,,,,,,,,24.4753388,54.3218189,"{""amenity"": ""pharmacy"", ""healthcare"": ""pharmacy"", ""name"": ""BinSina Pharmacy"", ""name:en"": ""BinSina Pharmacy"", ""wheelchair"": ""yes""}"
node/1163010405,node,1163010405,electronics,Sharifi Electrical,,,,,,,,,,,24.4891524,54.3674129,"{""name"": ""Sharifi Electrical"", ""name:en"": ""Sharifi Electrical"", ""shop"": ""electronics""}"
node/1163010458,node,1163010458,restaurants,Ponderosa Steakhouse,,,,,,,,,steak,,24.4849965,54.3625668,"{""amenity"": ""restaurant"", ""cuisine"": ""steak"", ""name"": ""Ponderosa Steakhouse"", ""name:en"": ""Ponderosa Steakhouse""}"
node/1163010500,node,1163010500,furniture,Jabal Al Noor Furniture,,,,,,,,,,,24.4879759,54.3657507,"{""name"": ""Jabal Al Noor Furniture"", ""name:en"": ""Jabal Al Noor Furniture"", ""shop"": ""furniture""}"
node/11634345387,node,11634345387,coffee_shops,ستاربكس,ستاربكس,Q37158,,,,,,,coffee_shop,,24.4519716,54.6402455,"{""amenity"": ""cafe"", ""brand"": ""ستاربكس"", ""brand:ar"": ""ستاربكس"", ""brand:en"": ""Starbucks"", ""brand:wikidata"": ""Q37158"", ""cuisine"": ""coffee_shop"", ""level"": ""0"", ""name"": ""ستاربكس"", ""name:ar"": ""ستاربكس"", ""name:en"": ""Starbucks"", ""official_name"": ""ستاربكس كافية"", ""official_name:ar"": ""ستاربكس كافية"", ""official_name:en"": ""Starbucks Coffee"", ""takeaway"": ""yes""}"
node/11634345388,node,11634345388,coffee_shops,Costa,Costa,Q608845,,,,,,,coffee_shop,,24.4523126,54.6406073,"{""amenity"": ""cafe"", ""brand"": ""Costa"", ""brand:wikidata"": ""Q608845"", ""cuisine"": ""coffee_shop"", ""level"": ""0"", ""name"": ""Costa"", ""takeaway"": ""yes""}"
node/11634345404,node,11634345404,coffee_shops,ستاربكس,ستاربكس,Q37158,,,,,,,coffee_shop,,24.4521565,54.6406993,"{""amenity"": ""cafe"", ""brand"": ""ستاربكس"", ""brand:ar"": ""ستاربكس"", ""brand:en"": ""Starbucks"", ""brand:wikidata"": ""Q37158"", ""cuisine"": ""coffee_shop"", ""level"": ""3"", ""name"": ""ستاربكس"", ""name:ar"": ""ستاربكس"", ""name:en"": ""Starbucks"", ""official_name"": ""ستاربكس كافية"", ""official_name:ar"": ""ستاربكس كافية"", ""official_name:en"": ""Starbucks Coffee"", ""takeaway"": ""yes""}"
node/11647403969,node,11647403969,supermarkets,,,,,,Su-Sa 10:00-21:00,,+97125510003,,,,24.4115606,54.5907833,"{""name:en"": ""Hyperama Abu Dhabi"", ""opening_hours"": ""Su-Sa 10:00-21:00"", ""phone"": ""+97125510003"", ""shop"": ""supermarket""}"
node/1166168481,node,1166168481,fast_food,Tasty Zone CAFETERIA,,,,,,,,,,,24.4586902,54.3762226,"{""amenity"": ""fast_food"", ""name"": ""Tasty Zone CAFETERIA"", ""name:en"": ""Lulu Burger""}"
node/11707752676,node,11707752676,restaurants,Asmak Al Halaqa,,,,,12:00-24:00,https://asmak-alhalaqa.online/,+971502659989,,seafood,,24.4571879,54.6740593,"{""amenity"": ""restaurant"", ""check_date"": ""2024-03-09"", ""contact:facebook"": ""asmakalhalqa"", ""cuisine"": ""seafood"", ""name"": ""Asmak Al Halaqa"", ""name:en"": ""Asmak Al Halaqa"", ""opening_hours"": ""12:00-24:00"", ""phone"": ""+971502659989"", ""website"": ""https://asmak-alhalaqa.online/""}"
node/11707752677,node,11707752677,fast_food,Big Bite,,,,,,https://www.zomato.com/abudhabi/big-bite-cafeteria-al-reef,,,indian,,24.4571541,54.674071,"{""amenity"": ""fast_food"", ""check_date"": ""2024-03-09"", ""cuisine"": ""indian"", ""name"": ""Big Bite"", ""name:en"": ""Big Bite"", ""website"": ""https://www.zomato.com/abudhabi/big-bite-cafeteria-al-reef""}"
node/11707752686,node,11707752686,convenience,Zoom,,,,,24/7,,,,,,24.4619629,54.6725968,"{""name"": ""Zoom"", ""opening_hours"": ""24/7"", ""payment:cash"": ""yes"", ""payment:debit_cards"": ""yes"", ""shop"": ""convenience""}"
node/11707752687,node,11707752687,coffee_shops,ستاربكس,ستاربكس,Q37158,,,,,,,coffee_shop,,24.4618983,54.6726942,"{""amenity"": ""cafe"", ""brand"": ""ستاربكس"", ""brand:ar"": ""ستاربكس"", ""brand:en"": ""Starbucks"", ""brand:wikidata"": ""Q37158"", ""cuisine"": ""coffee_shop"", ""drive_through"": ""yes"", ""name"": ""ستاربكس"", ""name:ar"": ""ستاربكس"", ""name:en"": ""Starbucks"", ""official_name"": ""ستاربكس كافية"", ""official_name:ar"": ""ستاربكس كافية"", ""official_name:en"": ""Starbucks Coffee"", ""takeaway"": ""yes""}"
node/11724149068,node,11724149068,bus_stops,,,,,,,,,,,,24.4308006,54.4188615,"{""bus"": ""yes"", ""highway"": ""bus_stop"", ""public_transport"": ""platform""}"
node/11724237769,node,11724237769,bus_stops,,,,,,,,,,,,24.4357026,54.4065261,"{""bus"": ""yes"", ""highway"": ""bus_stop"", ""public_transport"": ""platform""}"
node/11724237770,node,11724237770,bus_stops,,,,,,,,,,,,24.4389489,54.4006276,"{""bus"": ""yes"", ""highway"": ""bus_stop"", ""public_transport"": ""platform""}"
node/11724237771,node,11724237771,bus_stops,,,,,,,,,,,,24.4408593,54.3986437,"{""bus"": ""yes"", ""highway"": ""bus_stop"", ""public_transport"": ""platform""}"
node/11745210383,node,11745210383,fast_food,House of Tea,,,,,,,,,,,24.4905448,54.3731464,"{""amenity"": ""fast_food"", ""fast_food"": ""cafeteria"", ""name"": ""House of Tea""}"
node/11745306681,node,11745306681,clothes,Sahari Fashions,,,,,,,,,,,24.4929968,54.3684129,"{""name"": ""Sahari Fashions"", ""shop"": ""clothes""}"
node/11745306687,node,11745306687,clothes,Zeelous,,,,,,,,,,,24.493548,54.3666932,"{""name"": ""Zeelous"", ""shop"": ""clothes""}"
node/11745306688,node,11745306688,furniture,Al Huzaifa Furniture,,,,,,,,,,,24.4934092,54.3668102,"{""name"": ""Al Huzaifa Furniture"", ""shop"": ""furniture""}"
node/11745470181,node,11745470181,restaurants,Broasted King Restaurant,,,,,,,,,,,24.4930634,54.3669561,"{""amenity"": ""restaurant"", ""name"": ""Broasted King Restaurant""}"
node/11745470183,node,11745470183,bus_stops,,,,,,,,,,,,24.4944114,54.3643946,"{""bus"": ""yes"", ""highway"": ""bus_stop"", ""public_transport"": ""platform""}"
node/11745497359,node,11745497359,coffee_shops,Coloura Cafe,,,,,,,,,,,24.4912165,54.3544716,"{""amenity"": ""cafe"", ""name"": ""Coloura Cafe""}"
node/11745497378,node,11745497378,restaurants,Alyabarak Resataurant,,,,,,,,,,,24.4727566,54.3389621,"{""amenity"": ""restaurant"", ""name"": ""Alyabarak Resataurant""}"
node/11759124269,node,11759124269,clothes,Black Market,,,,,,,,,,,24.4916276,54.3718304,"{""name"": ""Black Market"", ""shop"": ""clothes""}"
node/11759124270,node,11759124270,supermarkets,Big Mart Hypermarket,,,,,,,,,,,24.491545,54.3718896,"{""name"": ""Big Mart Hypermarket"", ""shop"": ""supermarket""}"
node/11765320702,node,11765320702,mosques,,,,,,,,,,,,24.4980215,54.3701463,"{""addr:city"": ""أبوظبي"", ""addr:city:en"": ""Abu Dhabi"", ""addr:country"": ""AE"", ""amenity"": ""place_of_worship"", ""building"": ""mosque"", ""religion"": ""muslim""}"
node/11767954999,node,11767954999,bus_stops,Al Meena St/ Corniche Hospital 1,,,,,,,,,,,24.5003627,54.371521,"{""bus"": ""yes"", ""highway"": ""bus_stop"", ""name"": ""Al Meena St/ Corniche Hospital 1"", ""note"": ""Bus No.s: 41,43,55,L41,X5,N41,N43"", ""public_transport"": ""platform"", ""shelter"": ""no""}"
node/11767955004,node,11767955004,bus_stops,,,,,,,,,,,,24.5021111,54.372468,"{""bus"": ""yes"", ""highway"": ""bus_stop"", ""note"": ""Bus No.s: 41,43,55,L41,X5,N41,N43"", ""public_transport"": ""platform"", ""shelter"": ""no""}"
node/11771192760,node,11771192760,restaurants,Al Askandarani,,,,,,,,,seafood,,24.5140848,54.3761428,"{""amenity"": ""restaurant"", ""cuisine"": ""seafood"", ""name"": ""Al Askandarani""}"
node/11807144798,node,11807144798,supermarkets,Spinneys,Spinneys,Q2890701,,,Mo-Su 08:00-23:00,,,,,,24.4075043,54.5259325,"{""brand"": ""Spinneys"", ""brand:wikidata"": ""Q2890701"", ""brand:wikipedia"": ""en:Spinneys"", ""contact:email"": ""Mgrsan@finefarefood.com"", ""contact:phone"": ""+971 2 558 1906"", ""contact:website"": ""https://www.spinneys.com"", ""name"": ""Spinneys"", ""name:ar"": ""سبينس"", ""name:en"": ""Spinneys"", ""opening_hours"": ""Mo-Su 08:00-23:00"", ""shop"": ""supermarket""}"
node/11807144799,node,11807144799,supermarkets,Spinneys,Spinneys,Q2890701,,,Mo-Su 07:00-23:00,,,,,,24.4422953,54.6079623,"{""brand"": ""Spinneys"", ""brand:wikidata"": ""Q2890701"", ""brand:wikipedia"": ""en:Spinneys"", ""contact:email"": ""Mgrabn@finefarefood.com"", ""contact:phone"": ""+971 2 557 1065"", ""contact:website"": ""https://www.spinneys.com"", ""name"": ""Spinneys"", ""name:ar"": ""سبينس"", ""name:en"": ""Spinneys"", ""opening_hours"": ""Mo-Su 07:00-23:00"", ""shop"": ""supermarket""}"
node/11807144800,node,11807144800,supermarkets,Spinneys,Spinneys,Q2890701,,,Mo-Su 08:00-23:00,,,,,,24.419047,54.464051,"{""brand"": ""Spinneys"", ""brand:wikidata"": ""Q2890701"", ""brand:wikipedia"": ""en:Spinneys"", ""contact:email"": ""mgrhei@finefarefood.com"", ""contact:phone"": ""+971 2 447 3681"", ""contact:website"": ""https://www.spinneys.com"", ""name"": ""Spinneys"", ""name:ar"": ""سبينس"", ""name:en"": ""Spinneys"", ""opening_hours"": ""Mo-Su 08:00-23:00"", ""shop"": ""supermarket""}"
node/11807144801,node,11807144801,supermarkets,Spinneys,Spinneys,Q2890701,,,Mo-Su 07:00-23:00,,,,,,24.4933143,54.5866067,"{""brand"": ""Spinneys"", ""brand:wikidata"": ""Q2890701"", ""brand:wikipedia"": ""en:Spinneys"", ""contact:email"": ""mgrwyas@finefarefood.com"", ""contact:phone"": ""+971 2 565 0368"", ""contact:website"": ""https://www.spinneys.com"", ""name"": ""Spinneys"", ""name:ar"": ""سبينس"", ""name:en"": ""Spinneys"", ""opening_hours"": ""Mo-Su 07:00-23:00"", ""shop"": ""supermarket""}"
node/11811666320,node,11811666320,fast_food,Shake Shack,Shake Shack,Q1058722,,,,,,,burger,,24.4785001,54.3482526,"{""amenity"": ""fast_food"", ""brand"": ""Shake Shack"", ""brand:wikidata"": ""Q1058722"", ""cuisine"": ""burger"", ""name"": ""Shake Shack"", ""takeaway"": ""yes""}"
node/11811666325,node,11811666325,coffee_shops,ستاربكس,ستاربكس,Q37158,,,,,,,coffee_shop,,24.4782479,54.3480199,"{""amenity"": ""cafe"", ""brand"": ""ستاربكس"", ""brand:ar"": ""ستاربكس"", ""brand:en"": ""Starbucks"", ""brand:wikidata"": ""Q37158"", ""cuisine"": ""coffee_shop"", ""name"": ""ستاربكس"", ""name:ar"": ""ستاربكس"", ""name:en"": ""Starbucks"", ""official_name"": ""ستاربكس كافية"", ""official_name:ar"": ""ستاربكس كافية"", ""official_name:en"": ""Starbucks Coffee"", ""takeaway"": ""yes""}"
node/11811666461,node,11811666461,tourist_landmarks,,,,,,,,,,,,24.47875,54.3466413,"{""tourism"": ""viewpoint""}"
node/11811918267,node,11811918267,fast_food,Quick Food Cafeteria,,,,,,,,,,,24.4790565,54.3471287,"{""amenity"": ""fast_food"", ""fast_food"": ""cafeteria"", ""name"": ""Quick Food Cafeteria""}"
node/11812201778,node,11812201778,supermarkets,WWestZone,,,,,,,,,,,24.49542,54.3751753,"{""name"": ""WWestZone"", ""shop"": ""supermarket""}"
node/11815318203,node,11815318203,coffee_shops,Laura,,,,,Mo-Su 09:00-21:00,,,,coffee_shop,,24.4804482,54.6186858,"{""amenity"": ""cafe"", ""cuisine"": ""coffee_shop"", ""internet_access"": ""wlan"", ""internet_access:fee"": ""no"", ""name"": ""Laura"", ""opening_hours"": ""Mo-Su 09:00-21:00""}"
node/11842624670,node,11842624670,bus_stops,,,,,,,,,,,,24.5270234,54.3649676,"{""bus"": ""yes"", ""public_transport"": ""stop_position""}"
node/11842624675,node,11842624675,bus_stops,,,,,,,,,,,,24.5282892,54.3674672,"{""bus"": ""yes"", ""public_transport"": ""stop_position""}"
node/11842626919,node,11842626919,restaurants,Fish Story,,,,,,,,,seafood,,24.528372,54.363973,"{""amenity"": ""restaurant"", ""cuisine"": ""seafood"", ""name"": ""Fish Story""}"
node/11842626922,node,11842626922,restaurants,Osh House Restaurant,,,,,,,,,uzbek,,24.5278842,54.3643689,"{""amenity"": ""restaurant"", ""cuisine"": ""uzbek"", ""name"": ""Osh House Restaurant""}"
node/11842626924,node,11842626924,restaurants,Naeem Sweets,,,,,,,,,,,24.5278577,54.3645201,"{""amenity"": ""restaurant"", ""name"": ""Naeem Sweets""}"
node/11842626935,node,11842626935,restaurants,Kuziba Family Restaurant,,,,,,,,,,,24.5285581,54.3656151,"{""amenity"": ""restaurant"", ""name"": ""Kuziba Family Restaurant""}"
node/11842626936,node,11842626936,convenience,Baqala,,,,,,,,,,,24.5285197,54.3655569,"{""name"": ""Baqala"", ""shop"": ""convenience""}"
node/11842626938,node,11842626938,bus_stops,,,,,,,,,,,,24.5281805,54.3672954,"{""bus"": ""yes"", ""public_transport"": ""stop_position""}"
node/11842626953,node,11842626953,tourist_landmarks,Marsa Mina,,,,,,,,,,,24.5299525,54.3791552,"{""name"": ""Marsa Mina"", ""tourism"": ""attraction""}"
node/11848699533,node,11848699533,convenience,Baqala,,,,,,,,,,,24.4768678,54.3713968,"{""name"": ""Baqala"", ""shop"": ""convenience""}"
node/11848699562,node,11848699562,bakeries,Al Sultan Bakeries and Markets,,,,,,,,,,,24.4755775,54.3727813,"{""name"": ""Al Sultan Bakeries and Markets"", ""shop"": ""bakery""}"
node/11848699567,node,11848699567,pharmacies,Life Pharmacy,,,,,,,,,,,24.4748258,54.3735595,"{""amenity"": ""pharmacy"", ""healthcare"": ""pharmacy"", ""name"": ""Life Pharmacy""}"
node/11848699569,node,11848699569,supermarkets,Al Nashama Supermarket,,,,,,,,,,,24.4746441,54.3737228,"{""name"": ""Al Nashama Supermarket"", ""shop"": ""supermarket""}"
node/11848699570,node,11848699570,bus_stops,,,,,,,,,,,,24.4747461,54.3739546,"{""bus"": ""yes"", ""highway"": ""bus_stop"", ""public_transport"": ""platform""}"
node/11851491334,node,11851491334,restaurants,Square Bistro Restaurant,,,,,,,,,,,24.4734215,54.3492768,"{""amenity"": ""restaurant"", ""name"": ""Square Bistro Restaurant""}"
node/11851491336,node,11851491336,restaurants,Hatay,,,,,,,,,,,24.4723181,54.3502008,"{""amenity"": ""restaurant"", ""name"": ""Hatay""}"
node/11851491338,node,11851491338,restaurants,Tasha,,,,,,,,,,,24.4723791,54.3503537,"{""amenity"": ""restaurant"", ""name"": ""Tasha""}"
node/11851491339,node,11851491339,restaurants,Turf,,,,,,,,,,,24.4723242,54.3503966,"{""amenity"": ""restaurant"", ""name"": ""Turf""}"
node/11851491340,node,11851491340,fast_food,Orgada Burger,,,,,,,,,burger,,24.4722631,54.3504288,"{""amenity"": ""fast_food"", ""cuisine"": ""burger"", ""name"": ""Orgada Burger""}"
node/11851491341,node,11851491341,restaurants,The Coffee Club,,,,,,,,,,,24.4722107,54.3504691,"{""amenity"": ""restaurant"", ""name"": ""The Coffee Club""}"
node/11851491367,node,11851491367,pharmacies,HealthSense Pharmacy,,,,,,,,,,,24.4678191,54.3384115,"{""amenity"": ""pharmacy"", ""healthcare"": ""pharmacy"", ""name"": ""HealthSense Pharmacy""}"
node/11851491368,node,11851491368,restaurants,Sola Restaurant & Cafe,,,,,,,,,,,24.4675879,54.3385675,"{""amenity"": ""restaurant"", ""name"": ""Sola Restaurant & Cafe""}"
node/11851526570,node,11851526570,restaurants,Söcial,,,,,,,,,,,24.4674604,54.3383637,"{""amenity"": ""restaurant"", ""name"": ""Söcial""}"
node/11851526571,node,11851526571,coffee_shops,Crunch & Munch Cafe,,,,,,,,,,,24.4677448,54.3383268,"{""amenity"": ""cafe"", ""name"": ""Crunch & Munch Cafe""}"
node/11851526573,node,11851526573,restaurants,"""dialogue""",,,,,,,,,,,24.4669475,54.3387157,"{""amenity"": ""restaurant"", ""name"": ""\""dialogue\""""}"
node/11854285071,node,11854285071,convenience,Baqala,,,,,,,,,,,24.4943945,54.3638712,"{""name"": ""Baqala"", ""shop"": ""convenience""}"
node/11854285072,node,11854285072,convenience,Baqala,,,,,,,,,,,24.4943622,54.3632617,"{""name"": ""Baqala"", ""shop"": ""convenience""}"
node/11867271705,node,11867271705,supermarkets,Freshlandia,,,,,,,,,,,24.4456614,54.5947444,"{""name"": ""Freshlandia"", ""shop"": ""supermarket""}"
node/11869033296,node,11869033296,sports,Adidas Outlet,Adidas,Q3895,,,,,,,,,24.4786261,54.3535953,"{""brand"": ""Adidas"", ""brand:wikidata"": ""Q3895"", ""name"": ""Adidas Outlet"", ""shoes"": ""yes"", ""shop"": ""sports""}"
node/11871046837,node,11871046837,restaurants,Burro Blanco,,,,,,,,,mexican,,24.5202965,54.4353314,"{""amenity"": ""restaurant"", ""cuisine"": ""mexican"", ""name"": ""Burro Blanco""}"
node/11871259723,node,11871259723,supermarkets,Grandiose,,,,,,,,Grandiose,,,24.5208907,54.4338932,"{""addr:city"": ""Abu Dhabi"", ""addr:postcode"": ""22602"", ""name"": ""Grandiose"", ""operator"": ""Grandiose"", ""payment:app"": ""yes"", ""payment:cash"": ""yes"", ""payment:contactless"": ""yes"", ""payment:credit_cards"": ""yes"", ""payment:debit_cards"": ""yes"", ""shop"": ""supermarket""}"
node/1187355946,node,1187355946,supermarkets,Emirates General Market,,,,,,,,,,,24.3537051,54.6484204,"{""name"": ""Emirates General Market"", ""name:en"": ""Emirates General Market"", ""shop"": ""supermarket""}"
node/1187364362,node,1187364362,tourist_landmarks,Umm Al Nar Archeological Site,,,,,,,,,,,24.4385876,54.5141837,"{""historic"": ""archaeological_site"", ""name"": ""Umm Al Nar Archeological Site"", ""name:en"": ""Umm Al Nar Archeological Site""}"
node/11901215427,node,11901215427,convenience,Baqala,,,,,,,,,,,24.4951823,54.3719754,"{""name"": ""Baqala"", ""name:en"": ""Baqala"", ""shop"": ""convenience""}"
node/11901215428,node,11901215428,convenience,Baqala,,,,,,,,,,,24.4938687,54.3734411,"{""name"": ""Baqala"", ""name:en"": ""Baqala"", ""shop"": ""convenience""}"
node/11901215442,node,11901215442,restaurants,Juancho's,,,,,,,,,,,24.4949584,54.373625,"{""amenity"": ""restaurant"", ""name"": ""Juancho's""}"
node/11901215443,node,11901215443,coffee_shops,Mancha,,,,,,,,,bubble_tea,,24.4946943,54.3732203,"{""amenity"": ""cafe"", ""cuisine"": ""bubble_tea"", ""name"": ""Mancha""}"
node/11901215448,node,11901215448,department_stores,Al Sadaf Fashions,,,,,,,,,,,24.4937721,54.3735761,"{""name"": ""Al Sadaf Fashions"", ""shop"": ""department_store""}"
node/11901770491,node,11901770491,bus_stops,,,,,,,,,,,,24.433435,54.3758353,"{""bus"": ""yes"", ""public_transport"": ""stop_position""}"
node/11901770492,node,11901770492,bus_stops,Shakbout Bin Sultan St / Al Bateen St,,,,,,,,Integrated Terminal Centre,,,24.4333545,54.3758898,"{""bus"": ""yes"", ""highway"": ""bus_stop"", ""name"": ""Shakbout Bin Sultan St / Al Bateen St"", ""network"": ""ITC"", ""operator"": ""Integrated Terminal Centre"", ""public_transport"": ""platform"", ""ref"": ""01942B""}"
node/11901770493,node,11901770493,bus_stops,,,,,,,,,,,,24.4376893,54.3738543,"{""bus"": ""yes"", ""public_transport"": ""stop_position""}"
node/11901770494,node,11901770494,bus_stops,Al Khaleej Al Arabi St / Zaid Bin Al Haritha Mosque,,,,,,,,Integrated Terminal Centre,,,24.4377629,54.3739396,"{""bus"": ""yes"", ""highway"": ""bus_stop"", ""name"": ""Al Khaleej Al Arabi St / Zaid Bin Al Haritha Mosque"", ""network"": ""ITC"", ""operator"": ""Integrated Terminal Centre"", ""public_transport"": ""platform"", ""ref"": ""030380""}"
node/11901770496,node,11901770496,bus_stops,,,,,,,,,,,,24.4405031,54.3709604,"{""bus"": ""yes"", ""public_transport"": ""stop_position""}"
node/11901770497,node,11901770497,bus_stops,Al Khaleej Al Arabi St / Al Jarneen St,,,,,,,,Integrated Terminal Centre,,,24.4405942,54.3710048,"{""bus"": ""yes"", ""highway"": ""bus_stop"", ""name"": ""Al Khaleej Al Arabi St / Al Jarneen St"", ""network"": ""ITC"", ""operator"": ""Integrated Terminal Centre"", ""public_transport"": ""platform"", ""ref"": ""03036A"", ""shelter"": ""yes""}"
node/11901770507,node,11901770507,bus_stops,,,,,,,,,,,,24.4424301,54.3691078,"{""bus"": ""yes"", ""public_transport"": ""stop_position""}"
node/11901770508,node,11901770508,bus_stops,Al Khaleej Al Arabi St / Al Khirayz St,,,,,,,,Integrated Terminal Centre,,,24.4425029,54.3691577,"{""bus"": ""yes"", ""highway"": ""bus_stop"", ""name"": ""Al Khaleej Al Arabi St / Al Khirayz St"", ""network"": ""ITC"", ""operator"": ""Integrated Terminal Centre"", ""public_transport"": ""platform"", ""ref"": ""030330"", ""shelter"": ""yes""}"
node/11901770509,node,11901770509,bus_stops,,,,,,,,,,,,24.4471942,54.3645278,"{""bus"": ""yes"", ""public_transport"": ""stop_position""}"
